[
    {
        "id": "081cf8fd-a677-4ca5-9aa3-2fb08446ea56",
        "osm_id": "7633012856",
        "brand": "DRIV",
        "location": "Kvinesdal",
        "address": "Øyesletta 60, 4484 Øyestranda",
        "lat": 58.2800346,
        "lon": 6.8952643,
        "fuel_types": [
            "DIESEL",
            "GASOLINE_95",
            "GASOLINE_98"
        ]
    },
    {
        "id": "450b0e94-1171-49a5-9086-8ea66fcd215f",
        "osm_id": "1853046031",
        "brand": "DRIV",
        "location": "Lista",
        "address": "Flyplassveien 63, 4560 Vanse",
        "lat": 58.1079088,
        "lon": 6.6304231,
        "fuel_types": [
            "DIESEL",
            "GASOLINE_95",
            "GASOLINE_98",
            "COLORED_DIESEL"
        ]
    },
    {
        "id": "b9f00e51-1f88-493f-8d53-275f256b33bc",
        "osm_id": null,
        "brand": "AUTOMAT_1",
        "location": "Askim",
        "address": "Vestre Ringvei 2",
        "lat": 59.58151,
        "lon": 11.148217,
        "fuel_types": [
            "DIESEL",
            "GASOLINE_95"
        ]
    },
    {
        "id": "5387b809-d0b8-45a9-a2ac-ce33644cc83a",
        "osm_id": "247135653",
        "brand": "AUTOMAT_1",
        "location": "Arendal",
        "address": "Strømsbusletta 10, 4847 Arendal",
        "lat": 58.46125,
        "lon": 8.751303,
        "fuel_types": [
            "DIESEL",
            "GASOLINE_95"
        ]
    },
    {
        "id": "b2541a97-a32d-4baa-aaec-121efd91d751",
        "osm_id": "247135652",
        "brand": "AUTOMAT_1",
        "location": "Asker",
        "address": "Gamle Borgenvei 1, 1370 Asker",
        "lat": 59.831033,
        "lon": 10.41895,
        "fuel_types": [
            "DIESEL",
            "GASOLINE_95",
            "HVO100"
        ]
    },
    {
        "id": "72d1265d-1333-44c9-87d2-a4d39e9fb2e0",
        "osm_id": "1458388117",
        "brand": "AUTOMAT_1",
        "location": "Kobbervikdalen",
        "address": "Kobbervikdalen 159, 3036 Drammen",
        "lat": 59.6951453,
        "lon": 10.2476972,
        "fuel_types": [
            "DIESEL",
            "GASOLINE_95"
        ]
    },
    {
        "id": "1f6dc0db-32d2-4ad5-9edd-3cc802340220",
        "osm_id": "247135648",
        "brand": "AUTOMAT_1",
        "location": "Brakerøya",
        "address": "Holmens gate 6, 3012 Drammen",
        "lat": 59.741695,
        "lon": 10.225577,
        "fuel_types": [
            "DIESEL",
            "GASOLINE_95"
        ]
    },
    {
        "id": "fe861c41-5940-4d58-a3af-d7ead0cdcf86",
        "osm_id": "247135670",
        "brand": "DRIV",
        "location": "Kløfta",
        "address": "Trondheimsvegen - Kløfta 144, 2040 Kløfta",
        "lat": 60.086568,
        "lon": 11.131165,
        "fuel_types": [
            "DIESEL",
            "GASOLINE_95"
        ]
    },
    {
        "id": "9140ec79-3129-44e3-8d52-04ed8368a339",
        "osm_id": "247135646",
        "brand": "AUTOMAT_1",
        "location": "Fredrikstad",
        "address": "Mosseveien 39E, 1610 Fredrikstad",
        "lat": 59.223502,
        "lon": 10.916559,
        "fuel_types": [
            "DIESEL",
            "GASOLINE_95"
        ]
    },
    {
        "id": "2493ba93-4336-45e0-8ee6-3b02003084e0",
        "osm_id": "247135643",
        "brand": "AUTOMAT_1",
        "location": "Gjøvik",
        "address": "Ringvegen 8, 2815 Gjøvik",
        "lat": 60.783751,
        "lon": 10.693851,
        "fuel_types": [
            "DIESEL",
            "GASOLINE_95"
        ]
    },
    {
        "id": "9679dbb3-5b08-49f1-af2d-43d9155a7962",
        "osm_id": "247135664",
        "brand": "AUTOMAT_1",
        "location": "Gjelleråsen",
        "address": "Trondheimsveien 742, 1481 Hagan",
        "lat": 59.983363,
        "lon": 10.9262,
        "fuel_types": [
            "DIESEL",
            "GASOLINE_95"
        ]
    },
    {
        "id": "2abc6789-5c48-4338-894a-d1d91dc98c64",
        "osm_id": "247135673",
        "brand": "AUTOMAT_1",
        "location": "Hamar",
        "address": "Stangevegen 66, 2317 Hamar",
        "lat": 60.79148,
        "lon": 11.086519,
        "fuel_types": [
            "DIESEL",
            "GASOLINE_95"
        ]
    },
    {
        "id": "3efac8ea-a17a-4748-9e05-2b1ce3c1e716",
        "osm_id": "247135674",
        "brand": "AUTOMAT_1",
        "location": "Holmestrand",
        "address": "Ringveien 7, 3084 Holmestrand",
        "lat": 59.478981,
        "lon": 10.318612,
        "fuel_types": [
            "DIESEL",
            "GASOLINE_95"
        ]
    },
    {
        "id": "82233d53-4df6-4426-882b-92d42902b7a2",
        "osm_id": "247135672",
        "brand": "AUTOMAT_1",
        "location": "Horten",
        "address": "Torggata 2, 3181 Horten",
        "lat": 59.417651,
        "lon": 10.482784,
        "fuel_types": [
            "DIESEL",
            "GASOLINE_95"
        ]
    },
    {
        "id": "ec78159d-bcec-4254-9da9-3e0ae597981c",
        "osm_id": "6121566992",
        "brand": "AUTOMAT_1",
        "location": "Hønefoss",
        "address": "Osloveien 21, 3511 Hønefoss",
        "lat": 60.155763,
        "lon": 10.25588,
        "fuel_types": [
            "DIESEL",
            "GASOLINE_95"
        ]
    },
    {
        "id": "6103fabe-f34f-4eb8-b873-3f603e9e2b84",
        "osm_id": "247135650",
        "brand": "AUTOMAT_1",
        "location": "Høvik",
        "address": "Markalleen 118, 1363 Høvik",
        "lat": 59.9009024,
        "lon": 10.5848941,
        "fuel_types": [
            "DIESEL",
            "GASOLINE_95"
        ]
    },
    {
        "id": "28f1adde-1cf3-4c79-9774-a085b2c1886e",
        "osm_id": "247135669",
        "brand": "AUTOMAT_1",
        "location": "Jessheim",
        "address": "Algarheimsvegen 77, 2052 Jessheim",
        "lat": 60.140376,
        "lon": 11.21073,
        "fuel_types": [
            "DIESEL",
            "GASOLINE_95"
        ]
    },
    {
        "id": "269401eb-8abb-4067-9091-0db6d492ae0a",
        "osm_id": "6121566991",
        "brand": "AUTOMAT_1",
        "location": "Kongsberg",
        "address": "Numedalsvegen 92, 3617 Kongsberg",
        "lat": 59.6821466,
        "lon": 9.6324542,
        "fuel_types": [
            "DIESEL",
            "GASOLINE_95"
        ]
    },
    {
        "id": "e7155b24-d609-4ed4-a593-e271dc1222f5",
        "osm_id": "247135682",
        "brand": "AUTOMAT_1",
        "location": "Langhus",
        "address": "Regnbueveien 2, 1405 Langhus",
        "lat": 59.772124,
        "lon": 10.849497,
        "fuel_types": [
            "DIESEL",
            "GASOLINE_95"
        ]
    },
    {
        "id": "ac6b37ea-8e4c-4acd-a6f9-c13872a1693a",
        "osm_id": "247135667",
        "brand": "AUTOMAT_1",
        "location": "Larvik",
        "address": "Tjøllingveien 45, 3262 Larvik",
        "lat": 59.044517,
        "lon": 10.059532,
        "fuel_types": [
            "DIESEL",
            "GASOLINE_95"
        ]
    },
    {
        "id": "bfd491cb-a7e8-4156-a1f3-e20bd041915f",
        "osm_id": "247135668",
        "brand": "AUTOMAT_1",
        "location": "Nanset",
        "address": "Nansetgata 152, 3271 Larvik",
        "lat": 59.081489,
        "lon": 10.062881,
        "fuel_types": [
            "DIESEL",
            "GASOLINE_95"
        ]
    },
    {
        "id": "a50507f4-d8b0-4274-87d5-6ae83de68cc1",
        "osm_id": "247135665",
        "brand": "AUTOMAT_1",
        "location": "Vålerveien Moss",
        "address": "Vålerveien 179, 1599 Moss",
        "lat": 59.445132,
        "lon": 10.699297,
        "fuel_types": [
            "DIESEL",
            "GASOLINE_95"
        ]
    },
    {
        "id": "f150bfd7-3eef-4a23-8db6-8feb6fe7435c",
        "osm_id": "247135661",
        "brand": "AUTOMAT_1",
        "location": "Notodden",
        "address": "Merdevegen 2, 3670 Notodden",
        "lat": 59.561032,
        "lon": 9.231843,
        "fuel_types": [
            "DIESEL",
            "GASOLINE_95"
        ]
    },
    {
        "id": "7dfa20b2-51db-4eb2-bd50-f1c39d222667",
        "osm_id": "247135662",
        "brand": "AUTOMAT_1",
        "location": "Oppegård",
        "address": "Haukeliveien 50, 1415 Myrvoll",
        "lat": 59.788903,
        "lon": 10.798122,
        "fuel_types": [
            "DIESEL",
            "GASOLINE_95"
        ]
    },
    {
        "id": "187cb213-eeb8-499a-bd83-67de3d9c0080",
        "osm_id": "29583698",
        "brand": "AUTOMAT_1",
        "location": "Jerikoveien",
        "address": "Jerikoveien 28, 1067 Oslo",
        "lat": 59.9362482,
        "lon": 10.8894328,
        "fuel_types": [
            "DIESEL",
            "GASOLINE_95"
        ]
    },
    {
        "id": "b64d3973-ec6e-41de-bc1b-eb68e22693fc",
        "osm_id": "33244753",
        "brand": "AUTOMAT_1",
        "location": "Risløkka",
        "address": "Risløkkalléen 23, 0583 Oslo",
        "lat": 59.931157,
        "lon": 10.822649,
        "fuel_types": [
            "DIESEL",
            "GASOLINE_95"
        ]
    },
    {
        "id": "10253744-c309-448f-a0cc-3ba1b9de945c",
        "osm_id": "247135659",
        "brand": "AUTOMAT_1",
        "location": "Kirkeveien",
        "address": "Kirkeveien 172, 0455 Oslo",
        "lat": 59.935479,
        "lon": 10.744153,
        "fuel_types": [
            "DIESEL",
            "GASOLINE_95"
        ]
    },
    {
        "id": "8e4611cf-54c0-4ae8-95f1-e651d31270f4",
        "osm_id": "1246978838",
        "brand": "AUTOMAT_1",
        "location": "Alnabru",
        "address": "Breivollveien 31, 0668 Oslo",
        "lat": 59.9231297,
        "lon": 10.841093,
        "fuel_types": [
            "DIESEL",
            "GASOLINE_95"
        ]
    },
    {
        "id": "fab9f8ba-d683-4e86-b608-7a350a690288",
        "osm_id": "247135675",
        "brand": "AUTOMAT_1",
        "location": "Porsgrunn",
        "address": "Vallermyrvegen 36, 3917 Porsgrunn",
        "lat": 59.136037,
        "lon": 9.668284,
        "fuel_types": [
            "DIESEL",
            "GASOLINE_95"
        ]
    },
    {
        "id": "530d4e8d-abc9-4c6c-93a0-2fe05e15c268",
        "osm_id": "247135676",
        "brand": "AUTOMAT_1",
        "location": "Fjordgata",
        "address": "Fjordgata 15, 3936 Porsgrunn",
        "lat": 59.115919,
        "lon": 9.649829,
        "fuel_types": [
            "DIESEL",
            "GASOLINE_95"
        ]
    },
    {
        "id": "4e79ad30-f34d-4698-a05d-b063b4ee515a",
        "osm_id": "247135681",
        "brand": "AUTOMAT_1",
        "location": "Rakkestad",
        "address": "Storgata 35, 1890 Rakkestad",
        "lat": 59.423713,
        "lon": 11.344223,
        "fuel_types": [
            "DIESEL",
            "GASOLINE_95"
        ]
    },
    {
        "id": "bbbb1d35-c303-49c2-a91d-0f6b56e66a29",
        "osm_id": "190726774",
        "brand": "AUTOMAT_1",
        "location": "Rortunet",
        "address": "Odalsveien 64, 3470 Rortunet",
        "lat": 59.775652,
        "lon": 10.485798,
        "fuel_types": [
            "DIESEL",
            "GASOLINE_95"
        ]
    },
    {
        "id": "4a37be19-a4ee-47fa-a21c-6d1fa528f4d1",
        "osm_id": "247135679",
        "brand": "AUTOMAT_1",
        "location": "Sandefjord",
        "address": "Nedre Holtan v., 3229 Sandefjord",
        "lat": 59.139078,
        "lon": 10.24305,
        "fuel_types": [
            "DIESEL",
            "GASOLINE_95"
        ]
    },
    {
        "id": "d33129e6-1c71-499d-972a-f968f32ccd02",
        "osm_id": "247135680",
        "brand": "AUTOMAT_1",
        "location": "Skien",
        "address": "Klyvevegen 25, 3740 Skien",
        "lat": 59.149394,
        "lon": 9.631628,
        "fuel_types": [
            "DIESEL",
            "GASOLINE_95"
        ]
    },
    {
        "id": "13380181-2946-458c-bf2a-3f8f6bda6bdb",
        "osm_id": "247135683",
        "brand": "AUTOMAT_1",
        "location": "Tønsberg",
        "address": "Halfdan Wilhelmsens alle 37, 3117 Tønsberg",
        "lat": 59.273401,
        "lon": 10.427759,
        "fuel_types": [
            "DIESEL",
            "GASOLINE_95"
        ]
    },
    {
        "id": "0514a1b6-8fa7-41e7-aab3-ccb6f27c1ffe",
        "osm_id": "6120296512",
        "brand": "AUTOMAT_1",
        "location": "Vestby",
        "address": "Vestbyveien 35, 1543 Vestby",
        "lat": 59.609392,
        "lon": 10.7416758,
        "fuel_types": [
            "DIESEL",
            "GASOLINE_95"
        ]
    },
    {
        "id": "2eb57a70-09ff-4e11-ac91-b629d5cec7ec",
        "osm_id": "686577960",
        "brand": "BUNKER_OIL",
        "location": "Mehamn",
        "address": "Værveien 39, 9770 Mehamn",
        "lat": 71.0400394,
        "lon": 27.8502586,
        "fuel_types": [
            "DIESEL",
            "GASOLINE_95"
        ]
    },
    {
        "id": "b0e59192-8334-426d-9302-385f1d56f5ec",
        "osm_id": "3332203847",
        "brand": "BUNKER_OIL",
        "location": "Billefjord",
        "address": "9710 Indre Billefjord",
        "lat": 70.3151999,
        "lon": 25.047486,
        "fuel_types": [
            "DIESEL",
            "GASOLINE_95"
        ]
    },
    {
        "id": "38d823b7-f916-46e4-808c-90718063d4a6",
        "osm_id": "365571266",
        "brand": "BUNKER_OIL",
        "location": "Værøy",
        "address": "Sørland 2, 8063 Værøy",
        "lat": 67.661117,
        "lon": 12.6879768,
        "fuel_types": [
            "DIESEL",
            "GASOLINE_95"
        ]
    },
    {
        "id": "e6a65ef3-2c15-4706-9a78-0966bd04ba86",
        "osm_id": "13017943327",
        "brand": "BUNKER_OIL",
        "location": "Båtsfjord",
        "address": "Fjordvegen 21, 9990 Båtsfjord",
        "lat": 70.6226939,
        "lon": 29.6920311,
        "fuel_types": [
            "DIESEL",
            "GASOLINE_95",
            "GASOLINE_98",
            "COLORED_DIESEL"
        ]
    },
    {
        "id": "84c40939-d604-4539-ad9c-8aadb08d395f",
        "osm_id": "3686016719",
        "brand": "BUNKER_OIL",
        "location": "Skattøra",
        "address": "Skattørvegen 53, 9018 Tromsø",
        "lat": 69.6959415,
        "lon": 19.0171825,
        "fuel_types": [
            "DIESEL"
        ]
    },
    {
        "id": "b0e13b4a-26f9-4a51-9c91-d3569ef72dc1",
        "osm_id": "835681050",
        "brand": "BUNKER_OIL",
        "location": "Eidsdal",
        "address": "Eidsdalsvegen 782, 6215 Eidsdal",
        "lat": 62.2052362,
        "lon": 7.1391442,
        "fuel_types": [
            "DIESEL",
            "GASOLINE_95"
        ]
    },
    {
        "id": "4619cab8-766d-4004-8e59-91ab1957b820",
        "osm_id": "8003986786",
        "brand": "BUNKER_OIL",
        "location": "Gullesfjord",
        "address": "Gullholmveien 11, 8409 Gullesfjord",
        "lat": 68.5302682,
        "lon": 15.7646787,
        "fuel_types": [
            "DIESEL",
            "GASOLINE_95"
        ]
    },
    {
        "id": "2a878804-2cd7-43bb-b942-e27dc39e8281",
        "osm_id": "34554990",
        "brand": "BUNKER_OIL",
        "location": "Isrenna",
        "address": "Stakkevollvegen 328, 9019 Tromsø",
        "lat": 69.6850262,
        "lon": 19.0020453,
        "fuel_types": [
            "DIESEL",
            "GASOLINE_95"
        ]
    },
    {
        "id": "25ddfa51-aeb2-49f8-8e71-01b97ba3bb13",
        "osm_id": "553618794",
        "brand": "BUNKER_OIL",
        "location": "Laksvatn",
        "address": "Svartbergveien 4, 9042 Laksvatn",
        "lat": 69.3758208,
        "lon": 19.3606799,
        "fuel_types": [
            "DIESEL",
            "GASOLINE_95"
        ]
    },
    {
        "id": "68c34730-4edd-48e1-bdec-d83ee3f5d44b",
        "osm_id": "2658036291",
        "brand": "BUNKER_OIL",
        "location": "Lyngseidet",
        "address": "Strandveien 10, 9060 Lyngseidet",
        "lat": 69.5765213,
        "lon": 20.2200399,
        "fuel_types": [
            "DIESEL",
            "GASOLINE_95"
        ]
    },
    {
        "id": "5b542b09-ad8c-440c-9e58-2ea11bf932a9",
        "osm_id": "2090986199",
        "brand": "BUNKER_OIL",
        "location": "Batnfjordsøra",
        "address": "Nordmørsvegen 25, 6631 Batnfjordsøra",
        "lat": 62.894838,
        "lon": 7.6771497,
        "fuel_types": [
            "DIESEL",
            "GASOLINE_95"
        ]
    },
    {
        "id": "a1f4a5ed-8082-49a0-9c10-9c85a11706ef",
        "osm_id": "3370148019",
        "brand": "BUNKER_OIL",
        "location": "Olderdalen",
        "address": "Oldedalsveien 387, 9146 Olderdalen",
        "lat": 69.60465,
        "lon": 20.5313975,
        "fuel_types": [
            "DIESEL",
            "GASOLINE_95"
        ]
    },
    {
        "id": "544069bf-eead-49af-95fa-f60300ae21be",
        "osm_id": "5737619317",
        "brand": "BUNKER_OIL",
        "location": "Sauda",
        "address": "Sjøen 18, 4208 Saudasjøen",
        "lat": 59.6403018,
        "lon": 6.3092519,
        "fuel_types": [
            "DIESEL",
            "GASOLINE_95"
        ]
    },
    {
        "id": "d064561b-e7ff-4a26-928c-1cf4cf6e9426",
        "osm_id": "6945252347",
        "brand": "BUNKER_OIL",
        "location": "Hjelset",
        "address": "Baklivegen 1, 6450 Hjelset",
        "lat": 62.7877922,
        "lon": 7.535674,
        "fuel_types": [
            "DIESEL",
            "GASOLINE_95",
            "COLORED_DIESEL"
        ]
    },
    {
        "id": "a79e9d84-0e8e-465d-9fcf-84addb8d5ef6",
        "osm_id": "8735774800",
        "brand": "BUNKER_OIL",
        "location": "Nørve",
        "address": "Nørvevika 30, 6008 Ålesund",
        "lat": 62.4697581,
        "lon": 6.2075329,
        "fuel_types": [
            "DIESEL",
            "GASOLINE_95"
        ]
    },
    {
        "id": "5f93651d-a140-4e93-a908-2c9f4818dc1f",
        "osm_id": "8913876532",
        "brand": "ST1",
        "location": "Dale",
        "address": "Dale Industriområde 14, 5722 Dalekvam",
        "lat": 60.5834111,
        "lon": 5.7955737,
        "fuel_types": [
            "DIESEL",
            "GASOLINE_95"
        ]
    },
    {
        "id": "df89e600-0117-4266-a1a6-66f4caab0753",
        "osm_id": "11346875539",
        "brand": "BUNKER_OIL",
        "location": "Osholmen",
        "address": "Osholmen 14, 6006 Ålesund, Hessa",
        "lat": 62.4646277,
        "lon": 6.1155665,
        "fuel_types": [
            "DIESEL",
            "GASOLINE_95"
        ]
    },
    {
        "id": "636417cc-1b8e-4a34-95fc-0d44003f8562",
        "osm_id": "12140767379",
        "brand": "BUNKER_OIL",
        "location": "Lerstadvegen",
        "address": "Lerstadvegen 542, 6018 Ålesund",
        "lat": 62.4711804,
        "lon": 6.3588859,
        "fuel_types": [
            "DIESEL",
            "GASOLINE_95"
        ]
    },
    {
        "id": "dca4a0a4-71a7-404a-a2ec-8b8f78f965e1",
        "osm_id": "12417317881",
        "brand": "BUNKER_OIL",
        "location": "Holamyra",
        "address": "Holamyra 1, 6445 Malmefjorden",
        "lat": 62.8183652,
        "lon": 7.2390166,
        "fuel_types": [
            "DIESEL",
            "GASOLINE_95"
        ]
    },
    {
        "id": "2c11fe65-ae81-43db-81a3-602de498c4f2",
        "osm_id": "13076583202",
        "brand": "BUNKER_OIL",
        "location": "Kyrksæterøra",
        "address": "Hollaveien 3A, 7200 Kyrksæterøra",
        "lat": 63.2893766,
        "lon": 9.0905043,
        "fuel_types": [
            "DIESEL",
            "GASOLINE_95",
            "COLORED_DIESEL"
        ]
    },
    {
        "id": "39c07644-bb31-42fb-b959-c0442e390321",
        "osm_id": "13611117190",
        "brand": "BUNKER_OIL",
        "location": "Honningsvåg",
        "address": "Kobbhullveien 18, 9750 Honningsvåg",
        "lat": 70.9992003,
        "lon": 25.9676077,
        "fuel_types": [
            "DIESEL",
            "GASOLINE_95"
        ]
    },
    {
        "id": "4d4e4414-5b4a-4dbe-acee-a96c260966ab",
        "osm_id": "4284762165",
        "brand": "BUNKER_OIL",
        "location": "Skaidi",
        "address": "Kvalsund 9620, 9620 Skaidi",
        "lat": 70.4324384,
        "lon": 24.5013177,
        "fuel_types": [
            "DIESEL",
            "GASOLINE_95"
        ]
    },
    {
        "id": "dffd274e-540f-4201-8865-86d8e10dda4c",
        "osm_id": "5600914582",
        "brand": "BUNKER_OIL",
        "location": "Skibotn",
        "address": "Skibotsveien 295, 9143 Skibotn",
        "lat": 69.388796,
        "lon": 20.272833,
        "fuel_types": [
            "DIESEL",
            "GASOLINE_95"
        ]
    },
    {
        "id": "467addae-79e6-43d5-a869-dbc6ff9ee9ad",
        "osm_id": "4352721180",
        "brand": "BUNKER_OIL",
        "location": "Skåbu",
        "address": "Skåbuvegen 2709, 2643 Skåbu",
        "lat": 61.5241671,
        "lon": 9.40635,
        "fuel_types": [
            "DIESEL",
            "GASOLINE_95"
        ]
    },
    {
        "id": "66643e40-dc91-4c7f-b7de-50c05d9389ec",
        "osm_id": "11336449907",
        "brand": "BUNKER_OIL",
        "location": "Tafjord",
        "address": "Sjoavegen, 6213 Tafjord",
        "lat": 62.2343495,
        "lon": 7.4164655,
        "fuel_types": [
            "DIESEL",
            "GASOLINE_95"
        ]
    },
    {
        "id": "83ba1353-38df-4aa0-9798-0d88f5c0c8ca",
        "osm_id": "12065807177",
        "brand": "BUNKER_OIL",
        "location": "Gjestehamn",
        "address": "Prestanesvegen 51, 5392 Storebø",
        "lat": 60.0949239,
        "lon": 5.220648,
        "fuel_types": [
            "DIESEL",
            "GASOLINE_95"
        ]
    },
    {
        "id": "ac8a3038-969b-4131-bf7c-196b3b80320d",
        "osm_id": "6872833285",
        "brand": "BUNKER_OIL",
        "location": "kai",
        "address": "Steinsland kai, 5379 Steinsland",
        "lat": 60.2013276,
        "lon": 5.0773814,
        "fuel_types": [
            "GASOLINE_95"
        ]
    },
    {
        "id": "207f29df-2880-4de1-a5b5-da99e2f361f9",
        "osm_id": "6699272013",
        "brand": "BUNKER_OIL",
        "location": "Mauseidvågen",
        "address": "Mausavågvegen 32, 6036 Mauseidvågen",
        "lat": 62.42347,
        "lon": 6.275213,
        "fuel_types": [
            "DIESEL",
            "GASOLINE_95"
        ]
    },
    {
        "id": "e05cb83a-d440-4e10-8985-dfb34500050a",
        "osm_id": "745654525",
        "brand": "BUNKER_OIL",
        "location": "Kristiansund",
        "address": "Pilotveien 1, 6517 Kristiansund",
        "lat": 63.1182333,
        "lon": 7.8229193,
        "fuel_types": [
            "DIESEL",
            "GASOLINE_95",
            "COLORED_DIESEL"
        ]
    },
    {
        "id": "20e7160c-6838-4846-8df7-774ef46ee1cf",
        "osm_id": "302112275",
        "brand": "BUNKER_OIL",
        "location": "Lora",
        "address": "Romsdalsvegen 2342, 2666 Lora",
        "lat": 62.1458964,
        "lon": 8.6920232,
        "fuel_types": [
            "DIESEL",
            "GASOLINE_95"
        ]
    },
    {
        "id": "842c5330-a62a-4314-bf76-0af3f304fc33",
        "osm_id": "4868562382",
        "brand": "BUSKERUD_OLJE",
        "location": "Modum",
        "address": "Geithusveien 69, 3370 Geithus",
        "lat": 59.945293,
        "lon": 9.972741,
        "fuel_types": [
            "DIESEL",
            "GASOLINE_95",
            "COLORED_DIESEL"
        ]
    },
    {
        "id": "82f683b4-0431-4845-acee-d8f7b2a12ba0",
        "osm_id": "11786394611",
        "brand": "BUSKERUD_OLJE",
        "location": "Krøderen",
        "address": "Krøderfjordveien 397, 3535 Krøderen",
        "lat": 60.1244928,
        "lon": 9.7836605,
        "fuel_types": [
            "DIESEL",
            "GASOLINE_95",
            "COLORED_DIESEL"
        ]
    },
    {
        "id": "e0b39a27-b5a6-4557-9e7e-78c17db562c5",
        "osm_id": null,
        "brand": "MAX",
        "location": "Tynset",
        "address": "Brugata 7, 2500 Tynset",
        "lat": 62.2762184,
        "lon": 10.7584668,
        "fuel_types": [
            "DIESEL",
            "GASOLINE_95"
        ]
    },
    {
        "id": "670d1ed1-3bfc-4f1a-b61b-959c8dfd1051",
        "osm_id": "1504845015",
        "brand": "DRIV",
        "location": "Aurskog",
        "address": "Aurveien 104, 1930 Aurskog",
        "lat": 59.9265095,
        "lon": 11.4486277,
        "fuel_types": [
            "DIESEL",
            "GASOLINE_95"
        ]
    },
    {
        "id": "27bf9533-d751-43b2-aa51-abc3280675c9",
        "osm_id": "7632972020",
        "brand": "DRIV",
        "location": "Bamble",
        "address": "Valleveien 1668, 3967 Stathelle",
        "lat": 58.9675837,
        "lon": 9.5525933,
        "fuel_types": [
            "DIESEL",
            "GASOLINE_95"
        ]
    },
    {
        "id": "4292fd02-0913-47b5-8862-82927d348208",
        "osm_id": "7632972041",
        "brand": "DRIV",
        "location": "Bjørkelangen",
        "address": "Bliksrud Næringsområde, 1940 Bjørkelangen",
        "lat": 59.89154,
        "lon": 11.5606185,
        "fuel_types": [
            "DIESEL",
            "COLORED_DIESEL"
        ]
    },
    {
        "id": "b9aa20cd-0f9c-4a15-a507-fb18d4e296c2",
        "osm_id": "7632972027",
        "brand": "DRIV",
        "location": "Brekstad",
        "address": "Industrigata 21, 7130 Brekstad",
        "lat": 63.6979353,
        "lon": 9.6686292,
        "fuel_types": [
            "DIESEL",
            "GASOLINE_95"
        ]
    },
    {
        "id": "f35b443e-72fe-4505-ba42-996616cf49c1",
        "osm_id": "7632972019",
        "brand": "DRIV",
        "location": "Brunkeberg",
        "address": "Ordalsvegen 5, 3850 Kviteseid",
        "lat": 59.4444708,
        "lon": 8.5072639,
        "fuel_types": [
            "DIESEL",
            "COLORED_DIESEL"
        ]
    },
    {
        "id": "32024a7c-7ca7-4d98-8446-d230c831608c",
        "osm_id": "11005589405",
        "brand": "DRIV",
        "location": "Augerød",
        "address": "Augerødlia 1, 1591 Sperrebotn",
        "lat": 59.4688737,
        "lon": 10.7835516,
        "fuel_types": [
            "DIESEL",
            "GASOLINE_95",
            "COLORED_DIESEL"
        ]
    },
    {
        "id": "58be29b1-f64d-4cf4-a043-cb289d1ce6e3",
        "osm_id": "7632972042",
        "brand": "DRIV",
        "location": "Dal",
        "address": "Vognvegen 27, 2072 Dal",
        "lat": 60.2512678,
        "lon": 11.185662,
        "fuel_types": [
            "DIESEL",
            "GASOLINE_95"
        ]
    },
    {
        "id": "a93a8cbf-b215-473d-8832-a728181f3b20",
        "osm_id": "1277731003",
        "brand": "DRIV",
        "location": "Dirdal",
        "address": "Lindlandveien 1, 4335 Dirdal",
        "lat": 58.807803,
        "lon": 6.245414,
        "fuel_types": [
            "DIESEL",
            "GASOLINE_95"
        ]
    },
    {
        "id": "326480ef-fa32-4e6c-80c5-60bd3e9a58c1",
        "osm_id": "7632972022",
        "brand": "DRIV",
        "location": "Drangedal",
        "address": "Kåsmyra 1, 3750 Drangedal",
        "lat": 59.0872158,
        "lon": 9.0655929,
        "fuel_types": [
            "DIESEL",
            "GASOLINE_95"
        ]
    },
    {
        "id": "525f676e-0425-4b18-837b-1a4bf39a2453",
        "osm_id": "886312900",
        "brand": "DRIV",
        "location": "Ustaoset",
        "address": "Ustaosvegen 263, 3593 Ustaoset",
        "lat": 60.4988251,
        "lon": 8.0414695,
        "fuel_types": [
            "DIESEL",
            "GASOLINE_95",
            "COLORED_DIESEL"
        ]
    },
    {
        "id": "5070301a-5426-43fc-8c81-4ecd94f6d35b",
        "osm_id": "3012248671",
        "brand": "DRIV",
        "location": "Bud",
        "address": "Kippersundvegen 2, 6430 Bud",
        "lat": 62.9056238,
        "lon": 6.9197574,
        "fuel_types": [
            "DIESEL",
            "GASOLINE_95"
        ]
    },
    {
        "id": "635d3dce-10ca-4030-9b28-2e342595099e",
        "osm_id": "11237185030",
        "brand": "DRIV",
        "location": "Skogn",
        "address": "Støreslia 9, 7620 Skogn",
        "lat": 63.7034498,
        "lon": 11.1942503,
        "fuel_types": [
            "DIESEL",
            "GASOLINE_95"
        ]
    },
    {
        "id": "84e5ba5a-f2ff-4058-acbe-c98be55dad28",
        "osm_id": "12137398254",
        "brand": "DRIV",
        "location": "Rolvsøy",
        "address": "Rolvsøyveien 393, 1664 Rolvsøy",
        "lat": 59.2647157,
        "lon": 11.0104539,
        "fuel_types": [
            "DIESEL",
            "GASOLINE_95"
        ]
    },
    {
        "id": "a8984342-faa3-47a9-911c-923ee3bee223",
        "osm_id": "12877195072",
        "brand": "DRIV",
        "location": "Skotterud",
        "address": "B.P Hoels veg, 2230 Skotterud",
        "lat": 59.9815438,
        "lon": 12.1195038,
        "fuel_types": [
            "DIESEL",
            "COLORED_DIESEL"
        ]
    },
    {
        "id": "857bf8b9-d58e-4804-b3d2-8366329dafa8",
        "osm_id": "7632972015",
        "brand": "DRIV",
        "location": "Eidsvoll Verk",
        "address": "Trondheimsvegen 339, 2074 Eidsvoll Verk",
        "lat": 60.3039101,
        "lon": 11.1679887,
        "fuel_types": [
            "DIESEL",
            "GASOLINE_95"
        ]
    },
    {
        "id": "8c45c380-de88-43ab-b5dd-f958298d2b77",
        "osm_id": "7632972040",
        "brand": "DRIV",
        "location": "Ekne",
        "address": "Eknesvegen 96, 7624 Ekne",
        "lat": 63.694807,
        "lon": 11.0456309,
        "fuel_types": [
            "DIESEL",
            "GASOLINE_95",
            "COLORED_DIESEL"
        ]
    },
    {
        "id": "904adc30-7b0b-4da3-accf-94f30d2c85a8",
        "osm_id": "6066895929",
        "brand": "DRIV",
        "location": "Ekrene",
        "address": "Ekrene Næringspark 3, 5550 Sveio",
        "lat": 59.4888629,
        "lon": 5.3183909,
        "fuel_types": [
            "HVO100"
        ]
    },
    {
        "id": "63ed6bb4-abd9-4024-a158-bb798051e301",
        "osm_id": "849975723",
        "brand": "DRIV",
        "location": "Flesberg",
        "address": "Fv40 740, 3620 Flesberg",
        "lat": 59.8635967,
        "lon": 9.4295076,
        "fuel_types": [
            "DIESEL",
            "GASOLINE_95"
        ]
    },
    {
        "id": "eccc21c9-139c-4414-8965-9b1337a0482b",
        "osm_id": "4328065112",
        "brand": "DRIV",
        "location": "Folldal",
        "address": "Folldalsvegen 2876, 2580 Folldal",
        "lat": 62.1330553,
        "lon": 10.0013626,
        "fuel_types": [
            "DIESEL",
            "GASOLINE_95"
        ]
    },
    {
        "id": "eb946549-ce51-4a6a-9f3f-37e7e3037f06",
        "osm_id": "723873693",
        "brand": "DRIV",
        "location": "Fossum bru",
        "address": "Askimveien 3, 1820 Spydeberg",
        "lat": 59.6046439,
        "lon": 11.100431,
        "fuel_types": [
            "DIESEL",
            "GASOLINE_95",
            "COLORED_DIESEL"
        ]
    },
    {
        "id": "40e7501a-27b3-41ab-9d0d-d4725fef0233",
        "osm_id": "7632972039",
        "brand": "DRIV",
        "location": "Gol",
        "address": "Husøynvegen 9, 3550 Gol",
        "lat": 60.6966268,
        "lon": 8.9323001,
        "fuel_types": [
            "DIESEL",
            "GASOLINE_95"
        ]
    },
    {
        "id": "eb62ad30-b833-4086-beb2-ed7c8982a9af",
        "osm_id": "7632972021",
        "brand": "DRIV",
        "location": "Gransherad",
        "address": "Gransheradvegen 1048, 3691 Gransherad",
        "lat": 59.6911129,
        "lon": 9.039678,
        "fuel_types": [
            "DIESEL",
            "GASOLINE_95"
        ]
    },
    {
        "id": "ed26edf5-cff8-4c57-834f-dbdb273d0801",
        "osm_id": "13238600309",
        "brand": "DRIV",
        "location": "Drammen",
        "address": "Svend Haugs gate 4, 3013 Drammen",
        "lat": 59.7370897,
        "lon": 10.2219083,
        "fuel_types": [
            "DIESEL",
            "GASOLINE_98"
        ]
    },
    {
        "id": "dc44111f-800e-47ec-8681-b2d2b0423235",
        "osm_id": "849975273",
        "brand": "DRIV",
        "location": "Hafslundsøy",
        "address": "Nordbyveien 116, 1734 Sarpsborg",
        "lat": 59.2906337,
        "lon": 11.1487298,
        "fuel_types": [
            "DIESEL",
            "GASOLINE_95"
        ]
    },
    {
        "id": "626f80ff-45a2-4cb4-8eae-79d5d85f9e5c",
        "osm_id": "7213722408",
        "brand": "DRIV",
        "location": "Hallingby",
        "address": "Ådalsveien 155, 3525 Hallingby",
        "lat": 60.2751815,
        "lon": 10.1882863,
        "fuel_types": [
            "DIESEL",
            "GASOLINE_95",
            "COLORED_DIESEL"
        ]
    },
    {
        "id": "08f2e23c-3073-46ad-9be1-65f7c9889097",
        "osm_id": "7632972029",
        "brand": "DRIV",
        "location": "Haltdalen",
        "address": "Heksemvegen 77, 7383 Haltdalen",
        "lat": 62.9248436,
        "lon": 11.1542588,
        "fuel_types": [
            "DIESEL",
            "GASOLINE_95",
            "COLORED_DIESEL"
        ]
    },
    {
        "id": "b0564e7a-15fc-4b78-93b9-5f18e6916240",
        "osm_id": "6119891390",
        "brand": "DRIV",
        "location": "Heistad",
        "address": "Kjørholtvegen 23, 3940 Porsgrunn",
        "lat": 59.075733,
        "lon": 9.665391,
        "fuel_types": [
            "DIESEL",
            "COLORED_DIESEL"
        ]
    },
    {
        "id": "a0277be4-a615-4e53-984a-f4900f2f3a79",
        "osm_id": "7632972024",
        "brand": "DRIV",
        "location": "Hjartdal",
        "address": "Hjartdalsvegen 506, 3690 Hjartdal",
        "lat": 59.6005398,
        "lon": 8.7001961,
        "fuel_types": [
            "DIESEL",
            "GASOLINE_95"
        ]
    },
    {
        "id": "215528ed-c513-43f0-bbe1-347f2dddc040",
        "osm_id": "7632972008",
        "brand": "DRIV",
        "location": "Hokksund",
        "address": "Loe Bruk 16, 3300 Hokksund",
        "lat": 59.7690961,
        "lon": 9.9198743,
        "fuel_types": [
            "DIESEL",
            "GASOLINE_95",
            "COLORED_DIESEL"
        ]
    },
    {
        "id": "88be4744-1aec-438c-88d8-36722c9c5470",
        "osm_id": "331055716",
        "brand": "DRIV",
        "location": "Hurdal",
        "address": "Strandvegen 5, 2090 Hurdal",
        "lat": 60.4143356,
        "lon": 11.0661265,
        "fuel_types": [
            "DIESEL",
            "GASOLINE_95"
        ]
    },
    {
        "id": "8c72eaf7-5d98-4d49-b288-686f6d1f7eb7",
        "osm_id": "7632972036",
        "brand": "DRIV",
        "location": "Hurum",
        "address": "Skaholtveien 2, 3484 Holmsbu",
        "lat": 59.5592198,
        "lon": 10.4678651,
        "fuel_types": [
            "DIESEL",
            "GASOLINE_95"
        ]
    },
    {
        "id": "e4afff9f-5e59-424f-89ee-ecea3a324564",
        "osm_id": "7632972010",
        "brand": "DRIV",
        "location": "Kilemoen",
        "address": "Follummoveien 8, 3516 Hønefoss",
        "lat": 60.1954586,
        "lon": 10.226051,
        "fuel_types": [
            "DIESEL",
            "GASOLINE_95",
            "COLORED_DIESEL",
            "HVO100"
        ]
    },
    {
        "id": "90207b43-6324-4ca3-91cf-efee6e28b7a1",
        "osm_id": "7632972009",
        "brand": "DRIV",
        "location": "Kleivi",
        "address": "Kleivi Næringspark 32, 3570 Ål",
        "lat": 60.5774205,
        "lon": 8.4216002,
        "fuel_types": [
            "DIESEL",
            "COLORED_DIESEL"
        ]
    },
    {
        "id": "9aad46c6-3657-49c8-9e6e-14b3a417ab2d",
        "osm_id": "3829802095",
        "brand": "DRIV",
        "location": "Kolbu",
        "address": "Kolbulinna 996, 2847 Kolbu",
        "lat": 60.5969419,
        "lon": 10.7316336,
        "fuel_types": [
            "DIESEL",
            "GASOLINE_95",
            "COLORED_DIESEL"
        ]
    },
    {
        "id": "ee603e62-e9e1-41b0-8b73-83b5e3a2178e",
        "osm_id": "7632972012",
        "brand": "DRIV",
        "location": "Kongsberg",
        "address": "Barntjernmoen 8, 2067 Jessheim",
        "lat": 59.6276158,
        "lon": 9.6331242,
        "fuel_types": [
            "DIESEL",
            "GASOLINE_95",
            "COLORED_DIESEL"
        ]
    },
    {
        "id": "7044a6fc-186b-4813-8870-9f2b1200463c",
        "osm_id": "7632972011",
        "brand": "DRIV",
        "location": "Lindum",
        "address": "Lerpeveien 155, 3036 Drammen",
        "lat": 59.6892948,
        "lon": 10.27358,
        "fuel_types": [
            "DIESEL"
        ]
    },
    {
        "id": "b1542527-cbd3-49db-944e-c63ec3658d24",
        "osm_id": "7632972031",
        "brand": "DRIV",
        "location": "Lysøysund",
        "address": "Roelbakken 1, 7168 Bjugn",
        "lat": 63.8846524,
        "lon": 9.8732736,
        "fuel_types": [
            "DIESEL",
            "GASOLINE_95",
            "COLORED_DIESEL"
        ]
    },
    {
        "id": "11180505-b54c-4eb0-8911-bdd426d79a13",
        "osm_id": "7632972037",
        "brand": "DRIV",
        "location": "Magnormoen",
        "address": "Furumoen 29, 2240 Magnor",
        "lat": 59.934261,
        "lon": 12.2248775,
        "fuel_types": [
            "DIESEL",
            "GASOLINE_95",
            "COLORED_DIESEL"
        ]
    },
    {
        "id": "c6ef8116-4b48-4ecf-925e-1ef5e2959c8c",
        "osm_id": "7632972023",
        "brand": "DRIV",
        "location": "Melum",
        "address": "Hollavegen 539, 3729 Skien",
        "lat": 59.2104633,
        "lon": 9.4204674,
        "fuel_types": [
            "DIESEL",
            "GASOLINE_95"
        ]
    },
    {
        "id": "eeeb4cce-ecfb-44fa-b16d-2911960a5004",
        "osm_id": "849975263",
        "brand": "DRIV",
        "location": "Nore",
        "address": "Norefjord, Fv40 400, 3629 Nore",
        "lat": 60.1683797,
        "lon": 9.0180273,
        "fuel_types": [
            "DIESEL",
            "GASOLINE_95"
        ]
    },
    {
        "id": "87e6d5c6-09eb-436d-99e5-1fb82dca5d5d",
        "osm_id": "7632972025",
        "brand": "DRIV",
        "location": "Notodden",
        "address": "Inger Floods veg 18, 3676 Notodden",
        "lat": 59.5691996,
        "lon": 9.2186111,
        "fuel_types": [
            "DIESEL"
        ]
    },
    {
        "id": "6a7ebed8-aad5-4d46-8ba9-50d84195290f",
        "osm_id": "7632972030",
        "brand": "DRIV",
        "location": "Oppdal",
        "address": "Nordre, Industrivegen N. 6, 7340 Oppdal",
        "lat": 62.5889146,
        "lon": 9.6943717,
        "fuel_types": [
            "DIESEL",
            "GASOLINE_95",
            "COLORED_DIESEL"
        ]
    },
    {
        "id": "be2bc9ca-3317-45c4-bf5d-04568b88bc44",
        "osm_id": "7434399709",
        "brand": "DRIV",
        "location": "Opphaug",
        "address": "Fru Ingers Vei 473, 7140 Opphaug",
        "lat": 63.7285978,
        "lon": 9.6896088,
        "fuel_types": [
            "DIESEL",
            "GASOLINE_95",
            "GASOLINE_98",
            "COLORED_DIESEL"
        ]
    },
    {
        "id": "170c6767-dd57-4623-8673-be82f5fac91c",
        "osm_id": "364425601",
        "brand": "DRIV",
        "location": "Ramberghjørnet",
        "address": "Storgata 91, 3674 Notodden",
        "lat": 59.5652799,
        "lon": 9.2672911,
        "fuel_types": [
            "DIESEL",
            "GASOLINE_95"
        ]
    },
    {
        "id": "b34fda17-71ca-42fc-ab25-329b16f62cbe",
        "osm_id": "7632972014",
        "brand": "DRIV",
        "location": "Randsfjorden",
        "address": "Musmyrvegen 13, 3520 Jevnaker",
        "lat": 60.2258897,
        "lon": 10.3507914,
        "fuel_types": [
            "DIESEL"
        ]
    },
    {
        "id": "a8941a15-e782-4352-bf90-9fc90f009566",
        "osm_id": "7632972013",
        "brand": "DRIV",
        "location": "Sande",
        "address": "Lersbrygga 3, 3070 Sande",
        "lat": 59.5713208,
        "lon": 10.2549192,
        "fuel_types": [
            "DIESEL",
            "GASOLINE_95"
        ]
    },
    {
        "id": "be6ab459-f44c-4326-ab0a-1b7c632e122a",
        "osm_id": "7631297015",
        "brand": "DRIV",
        "location": "Skarnes",
        "address": "Disenåvegen 13, 2100 Skarnes",
        "lat": 60.2464853,
        "lon": 11.6773255,
        "fuel_types": [
            "DIESEL",
            "GASOLINE_95"
        ]
    },
    {
        "id": "84906ecf-c4fd-4d81-a0d7-2b3cbd2e5252",
        "osm_id": "7632972035",
        "brand": "DRIV",
        "location": "Sokna",
        "address": "Nordmoveien 26, 3534 Sokna",
        "lat": 60.2391965,
        "lon": 9.9573885,
        "fuel_types": [
            "DIESEL"
        ]
    },
    {
        "id": "17f67141-26ad-48d8-a1cc-0be50748b4ba",
        "osm_id": "7632972016",
        "brand": "DRIV",
        "location": "Steinsholt",
        "address": "Skiensveien 99, 3277 Steinsholt",
        "lat": 59.3101144,
        "lon": 9.8658159,
        "fuel_types": [
            "DIESEL"
        ]
    },
    {
        "id": "80adf119-ec19-4ad8-9a99-85062dbebde6",
        "osm_id": "415339836",
        "brand": "DRIV",
        "location": "Sæbøvik",
        "address": "Sæbøvikveien 153, 5454 Sæbøvik",
        "lat": 59.7925878,
        "lon": 5.7058809,
        "fuel_types": [
            "DIESEL",
            "GASOLINE_95"
        ]
    },
    {
        "id": "a7f9d7a9-8efd-4f0b-8b67-08977e0336ee",
        "osm_id": "7632972034",
        "brand": "DRIV",
        "location": "Tylldal",
        "address": "Tylldalsveien 1975, 2510 Tylldal",
        "lat": 62.1202762,
        "lon": 10.7994873,
        "fuel_types": [
            "DIESEL",
            "GASOLINE_95"
        ]
    },
    {
        "id": "d68f9ff4-22ed-4a32-8c34-fdca1693c172",
        "osm_id": "7632972043",
        "brand": "DRIV",
        "location": "Ulven",
        "address": "Knud Bryns vei 1, 0581 Oslo",
        "lat": 59.9259313,
        "lon": 10.8203046,
        "fuel_types": [
            "DIESEL"
        ]
    },
    {
        "id": "d85615a9-7d30-4855-b71c-df347a868322",
        "osm_id": "12880385322",
        "brand": "DRIV",
        "location": "Verdal",
        "address": "Venusvegen 8B, 7652 Verdal",
        "lat": 63.7847418,
        "lon": 11.461721,
        "fuel_types": [
            "DIESEL",
            "GASOLINE_95",
            "COLORED_DIESEL"
        ]
    },
    {
        "id": "c4257372-da21-48ad-8a5e-dad6cd73453e",
        "osm_id": "7632972018",
        "brand": "DRIV",
        "location": "Yven",
        "address": "Fjellhøyveien 1, 1718 Greåker",
        "lat": 59.2702561,
        "lon": 11.06545,
        "fuel_types": [
            "DIESEL",
            "GASOLINE_95"
        ]
    },
    {
        "id": "4587f1a4-e56d-4749-a241-a0689da42200",
        "osm_id": "13094572055",
        "brand": "DRIV",
        "location": "Skuleskard",
        "address": "Sirdalsveien 8685, 4443 Tjørhom",
        "lat": 59.011854,
        "lon": 6.9369569,
        "fuel_types": [
            "DIESEL",
            "GASOLINE_95"
        ]
    },
    {
        "id": "39de6e4b-0941-47b4-817d-eb7f333e2a5b",
        "osm_id": "5803788409",
        "brand": "DRIV",
        "location": "Hjelmeland kai",
        "address": "Hjelmeland ferjekai, 4130 Hjelmelandsvågen",
        "lat": 59.2341345,
        "lon": 6.166624,
        "fuel_types": [
            "DIESEL",
            "GASOLINE_95"
        ]
    },
    {
        "id": "293e16b7-3e7b-4e33-a3f4-0943ae3547eb",
        "osm_id": "322132057",
        "brand": "DRIV",
        "location": "Ålgård",
        "address": "Sandnesveien 22, 4330 Ålgård",
        "lat": 58.7672058,
        "lon": 5.8612898,
        "fuel_types": [
            "DIESEL",
            "GASOLINE_95",
            "GASOLINE_98"
        ]
    },
    {
        "id": "c378d749-cdb8-40dd-877c-1f3c17654ad8",
        "osm_id": "7632972028",
        "brand": "DRIV",
        "location": "Ørje",
        "address": "Sletta 2, 1870 Ørje",
        "lat": 59.4804113,
        "lon": 11.6860288,
        "fuel_types": [
            "DIESEL"
        ]
    },
    {
        "id": "0c98f027-6df5-4844-8ba0-1fff36490065",
        "osm_id": "12860190936",
        "brand": "HALTBAKK_EXPRESS",
        "location": "Brødstadbotn",
        "address": "Espenesveien 75, 9311 Brøstadbotn",
        "lat": 69.0932838,
        "lon": 17.7031937,
        "fuel_types": [
            "DIESEL",
            "GASOLINE_95"
        ]
    },
    {
        "id": "d1f88d33-e8b8-4ea2-a73a-80fe2b4420f9",
        "osm_id": "11455916609",
        "brand": "HALTBAKK_EXPRESS",
        "location": "Torsken",
        "address": "Nedre Ferånna 7, 9381 Torsken",
        "lat": 69.3377403,
        "lon": 17.1090281,
        "fuel_types": [
            "DIESEL",
            "GASOLINE_95"
        ]
    },
    {
        "id": "8fe5475d-8313-4640-bc24-7609981a3289",
        "osm_id": "11455916611",
        "brand": "HALTBAKK_EXPRESS",
        "location": "Eikelandsosen",
        "address": "Torsneset 23, 5640 Eikelandsosen",
        "lat": 60.2406879,
        "lon": 5.7465979,
        "fuel_types": [
            "DIESEL",
            "GASOLINE_95"
        ]
    },
    {
        "id": "0438b325-1051-4da1-bea0-0289aabb357a",
        "osm_id": "3484761692",
        "brand": "HALTBAKK_EXPRESS",
        "location": "Grong",
        "address": "Laksvegen 481, 7870 Grong",
        "lat": 64.4698816,
        "lon": 12.2089618,
        "fuel_types": [
            "DIESEL",
            "GASOLINE_95"
        ]
    },
    {
        "id": "6eb9efb2-b17c-4f8f-8826-9568b8e7972d",
        "osm_id": "12860190938",
        "brand": "HALTBAKK_EXPRESS",
        "location": "Heradsbygd",
        "address": "Solørvegen 865, 2415 Heradsbygd",
        "lat": 60.8226104,
        "lon": 11.6377851,
        "fuel_types": [
            "DIESEL",
            "GASOLINE_95"
        ]
    },
    {
        "id": "56a8a704-84ff-45e8-ad5b-d47919f4792b",
        "osm_id": "30057599",
        "brand": "HALTBAKK_EXPRESS",
        "location": "Kleppestø",
        "address": "Klampavikvegen 4, 5300 Kleppestø",
        "lat": 60.407636,
        "lon": 5.224625,
        "fuel_types": [
            "DIESEL",
            "GASOLINE_95",
            "GASOLINE_98"
        ]
    },
    {
        "id": "8a48d161-582a-4dff-8264-3425f167eece",
        "osm_id": "12860190937",
        "brand": "HALTBAKK_EXPRESS",
        "location": "Koppang",
        "address": "Storgata 85, 2480 Koppang",
        "lat": 61.5695254,
        "lon": 11.0504336,
        "fuel_types": [
            "DIESEL",
            "GASOLINE_95"
        ]
    },
    {
        "id": "200c0f33-d5b8-49f6-8d7b-e6e7c5075ac6",
        "osm_id": "249655006",
        "brand": "HALTBAKK_EXPRESS",
        "location": "Ler",
        "address": "Lundemovegen 8",
        "lat": 63.185767,
        "lon": 10.3136,
        "fuel_types": [
            "DIESEL",
            "GASOLINE_95",
            "COLORED_DIESEL"
        ]
    },
    {
        "id": "27b751a8-58bf-4a18-9d80-85099bf8d74a",
        "osm_id": "12860190932",
        "brand": "HALTBAKK_EXPRESS",
        "location": "Midtskogberget",
        "address": "Rundflovegen 21, 2429 Tørberget",
        "lat": 61.1183602,
        "lon": 12.0649932,
        "fuel_types": [
            "DIESEL",
            "GASOLINE_95"
        ]
    },
    {
        "id": "6ecf6c59-e877-4424-a6d5-f443486e178c",
        "osm_id": "30203968",
        "brand": "HALTBAKK_EXPRESS",
        "location": "Ostereidet",
        "address": "Eidavegen 532, 5993 Ostereidet",
        "lat": 60.6258928,
        "lon": 5.472836,
        "fuel_types": [
            "DIESEL",
            "GASOLINE_95",
            "GASOLINE_98"
        ]
    },
    {
        "id": "6556dc8d-40e5-42ab-a9ef-72a051e9354b",
        "osm_id": "12860190935",
        "brand": "HALTBAKK_EXPRESS",
        "location": "Sandhornøy",
        "address": "Vågsosen 14, 8130 Sandhornøy",
        "lat": 67.1228082,
        "lon": 14.0469164,
        "fuel_types": [
            "DIESEL",
            "GASOLINE_95"
        ]
    },
    {
        "id": "a98c97ba-9a2f-4536-8cf6-3d0c6ebebd3d",
        "osm_id": "8365250070",
        "brand": "HALTBAKK_EXPRESS",
        "location": "Skreia",
        "address": "Totenvegen 815, 2848 Skreia",
        "lat": 60.6518892,
        "lon": 10.9431106,
        "fuel_types": [
            "DIESEL",
            "GASOLINE_95",
            "GASOLINE_98"
        ]
    },
    {
        "id": "99db5175-1ada-4d7b-9626-f93317af5509",
        "osm_id": "849975576",
        "brand": "HALTBAKK_EXPRESS",
        "location": "Søfteland",
        "address": "Byvegen 920, 5212 Syfteland",
        "lat": 60.2537576,
        "lon": 5.4379383,
        "fuel_types": [
            "DIESEL",
            "GASOLINE_95"
        ]
    },
    {
        "id": "0c885f1f-7dce-44a7-923f-48aa9de4a06c",
        "osm_id": "250072641",
        "brand": "HALTBAKK_EXPRESS",
        "location": "Valslag",
        "address": "Snillfjordsveien 3844, 7255 Sundlandet",
        "lat": 63.4948208,
        "lon": 9.2725824,
        "fuel_types": [
            "DIESEL",
            "GASOLINE_95",
            "COLORED_DIESEL"
        ]
    },
    {
        "id": "657b9d24-dccd-4668-a11c-dd21789e2ba9",
        "osm_id": "11048045160",
        "brand": "HALTBAKK_EXPRESS",
        "location": "Sørburøy Hurtibåtkai",
        "address": "Sørburøyveien 1, 7286 Sørburøy",
        "lat": 63.9781544,
        "lon": 9.088279,
        "fuel_types": [
            "DIESEL",
            "GASOLINE_95"
        ]
    },
    {
        "id": "36ddc418-822b-4e36-a66d-cf0694e9bd6e",
        "osm_id": "7633177208",
        "brand": "HAUGALAND_OLJE",
        "location": "Truck Hollundsdalen",
        "address": "Hollundsdalen 43, 5430 Bremnes",
        "lat": 59.7955133,
        "lon": 5.2008532,
        "fuel_types": [
            "DIESEL",
            "GASOLINE_95"
        ]
    },
    {
        "id": "4895579d-4d49-4586-932c-be8a20aad691",
        "osm_id": "7633366290",
        "brand": "HAUGALAND_OLJE",
        "location": "Husøy",
        "address": "Nordre Naustbakken 11, 5440 Mosterhamn",
        "lat": 59.3397582,
        "lon": 5.2890855,
        "fuel_types": [
            "DIESEL",
            "GASOLINE_95"
        ]
    },
    {
        "id": "60f6a86d-e5a4-4be4-818d-83a2e9798245",
        "osm_id": "1893432419",
        "brand": "JOKER",
        "location": "Våg",
        "address": "Engeløyveien 257, 8289 ENGELØYA",
        "lat": 67.9261701,
        "lon": 15.0113959,
        "fuel_types": [
            "DIESEL",
            "GASOLINE_95"
        ]
    },
    {
        "id": "90e2959a-da8e-41e4-a0e2-0172af3e58fd",
        "osm_id": null,
        "brand": "JOKER",
        "location": "Kvina",
        "address": "Tonnesveien 30, 8752 Konsvikosen",
        "lat": 66.466798,
        "lon": 13.1695584,
        "fuel_types": [
            "DIESEL",
            "GASOLINE_95"
        ]
    },
    {
        "id": "1f95d316-c706-4b23-9e66-4570c82d6d86",
        "osm_id": null,
        "brand": "KNAPPHUS",
        "location": "Krambua Bensin & Storkiosk",
        "address": "Strondavegen 2694, 5593 Skånevik",
        "lat": 59.7329823,
        "lon": 5.9318271,
        "fuel_types": [
            "DIESEL",
            "GASOLINE_95"
        ]
    },
    {
        "id": "267657a1-c89c-4a7c-aa56-2e06c3c84d27",
        "osm_id": "493338034",
        "brand": "DRIV",
        "location": "Varhaug",
        "address": "Tjemslandsmarka 4, 4360 Varhaug",
        "lat": 58.6189453,
        "lon": 5.6650857,
        "fuel_types": [
            "DIESEL",
            "GASOLINE_95"
        ]
    },
    {
        "id": "2734bd31-4c17-4d8d-9cc7-2e86646457e2",
        "osm_id": "7633177213",
        "brand": "DRIV",
        "location": "Nærbø",
        "address": "Langgata 50, 4362 Vigrestad",
        "lat": 58.6743368,
        "lon": 5.6404863,
        "fuel_types": [
            "DIESEL",
            "COLORED_DIESEL"
        ]
    },
    {
        "id": "fa363743-24bd-4605-b52c-ceb59c6d00a3",
        "osm_id": null,
        "brand": "DRIV",
        "location": "Sinnes",
        "address": "Sirdalsveien 7113, 4443 Tjørhom",
        "lat": 58.9074953,
        "lon": 6.8546869,
        "fuel_types": [
            "DIESEL",
            "GASOLINE_95"
        ]
    },
    {
        "id": "4109cdbd-bc01-4cfc-94e8-84b2a91740cf",
        "osm_id": "5986584917",
        "brand": "DRIV",
        "location": "Skurve",
        "address": "Skurvebakkane 1, 4331 Ålgård",
        "lat": 58.7474591,
        "lon": 5.9247043,
        "fuel_types": [
            "DIESEL",
            "GASOLINE_95"
        ]
    },
    {
        "id": "3af8bbb6-bf82-481e-a4c4-0816239271da",
        "osm_id": null,
        "brand": "DRIV",
        "location": "dalane",
        "address": "Rekeland, 4380 Hauge i Dalane",
        "lat": 58.3549763,
        "lon": 6.2685238,
        "fuel_types": [
            "DIESEL"
        ]
    },
    {
        "id": "3e4ccb02-4d29-40ae-962c-5bb39258963b",
        "osm_id": "5810949066",
        "brand": "DRIV",
        "location": "Jæren Olje Varhaug",
        "address": "Tjemslandsmarka 4, 4360 Varhaug",
        "lat": 58.6194311,
        "lon": 5.6647549,
        "fuel_types": [
            "DIESEL"
        ]
    },
    {
        "id": "de7d8fbd-5dda-49eb-936f-2b04f1a1584e",
        "osm_id": "12817365816",
        "brand": "KNAPPHUS",
        "location": "Salangen",
        "address": "Salangsverket 91, 9350 Salangsverket",
        "lat": 68.9085162,
        "lon": 17.720018,
        "fuel_types": [
            "DIESEL"
        ]
    },
    {
        "id": "d648e0b6-bdf4-461d-a57a-1df9302d952c",
        "osm_id": "6525671245",
        "brand": "KNAPPHUS",
        "location": "Bokn Føresvik",
        "address": "Føresvikvegen 58, 5561 Bokn",
        "lat": 59.2326737,
        "lon": 5.4393301,
        "fuel_types": [
            "DIESEL",
            "GASOLINE_95"
        ]
    },
    {
        "id": "54bea339-7e3d-4c2d-96c9-abadee958f0a",
        "osm_id": "849976075",
        "brand": "KNAPPHUS",
        "location": "Sunde",
        "address": "Toralivegen 14, 5450 Sunde i Sunnhordland",
        "lat": 59.837196,
        "lon": 5.748307,
        "fuel_types": [
            "DIESEL",
            "GASOLINE_95"
        ]
    },
    {
        "id": "9fae0366-d643-48b2-bda8-fe690815e20a",
        "osm_id": "1314343657",
        "brand": "KNAPPHUS",
        "location": "Fjærland",
        "address": "Fjærlandsfjorden 13, 6848 Fjærland",
        "lat": 61.4232867,
        "lon": 6.764466,
        "fuel_types": [
            "DIESEL",
            "GASOLINE_95"
        ]
    },
    {
        "id": "73b28a40-e4dd-484f-abcc-1f4d82e15e11",
        "osm_id": "12079550575",
        "brand": "KNAPPHUS",
        "location": "Rødskjær",
        "address": "Rødskjærveien, 9430 Sandtorg",
        "lat": 68.5774985,
        "lon": 16.5248846,
        "fuel_types": [
            "DIESEL",
            "GASOLINE_95"
        ]
    },
    {
        "id": "cfd3a0da-a702-4e60-9630-b30d8f4478a5",
        "osm_id": "5265344209",
        "brand": "KNAPPHUS",
        "location": "Spangereid",
        "address": "Lindesnesveien 18b, 4521 Høllen",
        "lat": 58.04523,
        "lon": 7.1402657,
        "fuel_types": [
            "DIESEL",
            "GASOLINE_95"
        ]
    },
    {
        "id": "7f73e87f-1b7d-43bd-88f0-d0185b799ddb",
        "osm_id": "8164457642",
        "brand": "KNAPPHUS",
        "location": "Stamsund",
        "address": "Borgvågveien 3, 8360 Bøstad",
        "lat": 68.1208882,
        "lon": 13.8433086,
        "fuel_types": [
            "DIESEL",
            "GASOLINE_95"
        ]
    },
    {
        "id": "4d9a38f4-bbb2-402e-bf31-15f3f2e8ac32",
        "osm_id": null,
        "brand": "KNAPPHUS",
        "location": "Joker Hindaråvåg",
        "address": "Hinderåvåg 12, 5560 Nedstrand",
        "lat": 59.3490016,
        "lon": 5.8007677,
        "fuel_types": [
            "DIESEL",
            "GASOLINE_95"
        ]
    },
    {
        "id": "0f355abf-582a-4de9-98c2-a0f8134c0519",
        "osm_id": "190844127",
        "brand": "MAX",
        "location": "Ulset",
        "address": "Kvikneveien 5074, 2512 Kvikne",
        "lat": 62.616635,
        "lon": 10.2545189,
        "fuel_types": [
            "DIESEL",
            "GASOLINE_95"
        ]
    },
    {
        "id": "8552d360-ecf8-43d6-a09e-91aa2503e8d2",
        "osm_id": "11107231474",
        "brand": "MAX",
        "location": "Uvdal",
        "address": "Fv40, 3632 Uvdal",
        "lat": 60.2818147,
        "lon": 8.57908,
        "fuel_types": [
            "DIESEL",
            "GASOLINE_95",
            "COLORED_DIESEL"
        ]
    },
    {
        "id": "c0d34bdb-3d29-46af-be99-fc5552cf3595",
        "osm_id": "7792548196",
        "brand": "MH24",
        "location": "Myrvåg",
        "address": "Dragsundvegen 2, 6080 Gurskøy",
        "lat": 62.2764621,
        "lon": 5.8060975,
        "fuel_types": [
            "DIESEL",
            "GASOLINE_95",
            "COLORED_DIESEL"
        ]
    },
    {
        "id": "7e24d351-a994-46bc-ad21-8837d54b1d4e",
        "osm_id": "4146938659",
        "brand": "MH24",
        "location": "Almenningen",
        "address": "Almenningsfjellet, 6713 Almenningen",
        "lat": 61.9232424,
        "lon": 5.2205849,
        "fuel_types": [
            "DIESEL",
            "GASOLINE_95"
        ]
    },
    {
        "id": "2fcb005a-1f2f-4a64-93c5-c920454c3ef1",
        "osm_id": "11229797442",
        "brand": "MH24",
        "location": "Stryn",
        "address": "Strynevegen 55, 6783 Stryn",
        "lat": 61.9104857,
        "lon": 6.7452514,
        "fuel_types": [
            "DIESEL",
            "GASOLINE_95"
        ]
    },
    {
        "id": "ed49c407-5028-4172-8bd1-3ffaae29444b",
        "osm_id": "5916111715",
        "brand": "MH24",
        "location": "Sørbøvåg",
        "address": "Åfjordvegen 894, 6958 Sørbøvågen",
        "lat": 61.226315,
        "lon": 5.174236,
        "fuel_types": [
            "DIESEL",
            "GASOLINE_95"
        ]
    },
    {
        "id": "314ceee9-e8fa-4745-934a-25ffcdce5bf9",
        "osm_id": "12067519011",
        "brand": "MH24",
        "location": "Utvik",
        "address": "6797 Utvik",
        "lat": 61.80659,
        "lon": 6.5179919,
        "fuel_types": [
            "DIESEL",
            "GASOLINE_95"
        ]
    },
    {
        "id": "8ca53b24-8698-48a2-87e0-790ff3796b04",
        "osm_id": "892946537",
        "brand": "MINOL",
        "location": "Hegeland",
        "address": "Sentrumsveien 6, 8920 Sømna",
        "lat": 65.3120607,
        "lon": 12.1671372,
        "fuel_types": [
            "DIESEL",
            "GASOLINE_95"
        ]
    },
    {
        "id": "29bb0d8c-1e0e-476a-992b-3b7ebe11d414",
        "osm_id": "5924983177",
        "brand": "MINOL",
        "location": "Joker Storjord",
        "address": "E6 47, 8275 Storjord i Tysfjord",
        "lat": 68.1938808,
        "lon": 16.0286258,
        "fuel_types": [
            "DIESEL",
            "GASOLINE_95"
        ]
    },
    {
        "id": "3ffa3f37-5834-477a-9805-42d0c421d74c",
        "osm_id": "9767707343",
        "brand": "OLJELEVERANDOREN",
        "location": "Førde",
        "address": "Holtemyrane 1, 6814 Førde",
        "lat": 61.446219,
        "lon": 5.8181915,
        "fuel_types": [
            "DIESEL",
            "GASOLINE_95"
        ]
    },
    {
        "id": "5dd3a5eb-90c5-44af-84c3-92727489aead",
        "osm_id": "5536918601",
        "brand": "OLJELEVERANDOREN",
        "location": "Voss",
        "address": "Brynalii 78, 5705 Voss",
        "lat": 60.6350075,
        "lon": 6.4578688,
        "fuel_types": [
            "DIESEL",
            "GASOLINE_95"
        ]
    },
    {
        "id": "ae23a1f0-f508-4312-96f6-fe893f162a19",
        "osm_id": "7784787229",
        "brand": "OLJELEVERANDOREN",
        "location": "Hundvin",
        "address": "Hetlehovda 2, 5956 Hundvin",
        "lat": 60.684092,
        "lon": 5.2293776,
        "fuel_types": [
            "DIESEL",
            "GASOLINE_95"
        ]
    },
    {
        "id": "7d9bfdd4-be39-44a1-9d15-6ab791c22dba",
        "osm_id": "8614951337",
        "brand": "PREEM",
        "location": "Truck Bagn",
        "address": "Storebruvegen 80",
        "lat": 60.82591541,
        "lon": 9.545141171,
        "fuel_types": [
            "DIESEL",
            "COLORED_DIESEL",
            "HVO100"
        ]
    },
    {
        "id": "90b0e894-6b18-44e0-b94c-86f2852071e0",
        "osm_id": "6119959446",
        "brand": "PREEM",
        "location": "Midtsveen Tanktransport",
        "address": "Dokken 5, 2870 Dokka",
        "lat": 60.8401631,
        "lon": 10.0522993,
        "fuel_types": [
            "DIESEL",
            "COLORED_DIESEL"
        ]
    },
    {
        "id": "9cf615f7-9589-4df8-8eb9-7b1fce73cd48",
        "osm_id": "11455834774",
        "brand": "PREEM",
        "location": "Truck Elverum",
        "address": "Vestsivegen 269",
        "lat": 60.86078767,
        "lon": 11.5491885,
        "fuel_types": [
            "DIESEL",
            "COLORED_DIESEL",
            "HVO100"
        ]
    },
    {
        "id": "78897c7d-5a24-4d6b-9aab-94c4f2367780",
        "osm_id": "6221185813",
        "brand": "PREEM",
        "location": "Kristiansand",
        "address": "Setesdalsveien 216",
        "lat": 58.1817969,
        "lon": 7.9354562,
        "fuel_types": [
            "DIESEL",
            "GASOLINE_95",
            "HVO100"
        ]
    },
    {
        "id": "4d4037ad-0992-4b0f-adce-6590b0698488",
        "osm_id": "11455834773",
        "brand": "PREEM",
        "location": "Truck Rena",
        "address": "Fabrikkveien 1",
        "lat": 61.13021867,
        "lon": 11.3755061,
        "fuel_types": [
            "DIESEL",
            "COLORED_DIESEL",
            "HVO100"
        ]
    },
    {
        "id": "26e96122-109a-4906-aa0f-d51f4b7002a7",
        "osm_id": "12052586071",
        "brand": "PREEM",
        "location": "Truck Tau",
        "address": "Breivikveien 1",
        "lat": 59.08532834,
        "lon": 5.91709124,
        "fuel_types": [
            "DIESEL",
            "COLORED_DIESEL",
            "HVO100"
        ]
    },
    {
        "id": "c14eaa03-4c58-4334-b89d-5d71eb5c0260",
        "osm_id": "12052586070",
        "brand": "PREEM",
        "location": "Årdal",
        "address": "Ryfylkevegen 5391",
        "lat": 59.15107408,
        "lon": 6.1795143,
        "fuel_types": [
            "GASOLINE_95",
            "HVO100"
        ]
    },
    {
        "id": "8b4b49e8-916c-4fa1-9ced-97b89dbaac3d",
        "osm_id": "7633177211",
        "brand": "DRIV",
        "location": "Hjelmeland",
        "address": "",
        "lat": 59.0866155,
        "lon": 5.9148169,
        "fuel_types": [
            "DIESEL",
            "GASOLINE_95"
        ]
    },
    {
        "id": "d3b32de0-2859-472e-80a2-15a2b2b65325",
        "osm_id": "6083131027",
        "brand": "ST1",
        "location": "Aksdal",
        "address": "",
        "lat": 59.42058,
        "lon": 5.4459896,
        "fuel_types": [
            "DIESEL",
            "GASOLINE_95",
            "GASOLINE_98"
        ]
    },
    {
        "id": "0822c714-bd2e-4b99-8ecd-01b2069fecfa",
        "osm_id": "6082908826",
        "brand": "ST1",
        "location": "Alvdal",
        "address": "",
        "lat": 62.1111805,
        "lon": 10.626602,
        "fuel_types": [
            "DIESEL",
            "GASOLINE_95",
            "GASOLINE_98"
        ]
    },
    {
        "id": "ad6a07f9-dfaf-4e04-b959-aeb5295a2948",
        "osm_id": "162909731",
        "brand": "ST1",
        "location": "Andenes",
        "address": "",
        "lat": 69.3101294,
        "lon": 16.102443,
        "fuel_types": [
            "DIESEL",
            "GASOLINE_95",
            "GASOLINE_98"
        ]
    },
    {
        "id": "2bad1c91-a1c2-4688-8afe-3d165eb418bd",
        "osm_id": "6957388943",
        "brand": "ST1",
        "location": "Andenes Marina",
        "address": "",
        "lat": 69.3252724,
        "lon": 16.1387219,
        "fuel_types": [
            "GASOLINE_95"
        ]
    },
    {
        "id": "40ae84d0-a22d-440e-8a92-8a9beabac70b",
        "osm_id": "1274144952",
        "brand": "ST1",
        "location": "Ankenes",
        "address": "",
        "lat": 68.4056138,
        "lon": 17.4175924,
        "fuel_types": [
            "DIESEL",
            "GASOLINE_95",
            "GASOLINE_98"
        ]
    },
    {
        "id": "096ce957-e05d-4b83-8bd2-3c91416baba2",
        "osm_id": "5496684735",
        "brand": "ST1",
        "location": "Apenes",
        "address": "",
        "lat": 59.426662,
        "lon": 10.455039,
        "fuel_types": [
            "DIESEL",
            "GASOLINE_95"
        ]
    },
    {
        "id": "dde64ef0-d3a4-4e3e-90ad-dce0f39c0ccf",
        "osm_id": "2609030589",
        "brand": "ST1",
        "location": "Arendal",
        "address": "",
        "lat": 58.4535953,
        "lon": 8.7474209,
        "fuel_types": [
            "DIESEL",
            "GASOLINE_95"
        ]
    },
    {
        "id": "494d6569-4b95-49cf-b421-43c130ac03bd",
        "osm_id": "355897870",
        "brand": "ST1",
        "location": "Asker",
        "address": "",
        "lat": 59.8332292,
        "lon": 10.4204876,
        "fuel_types": [
            "DIESEL",
            "GASOLINE_95",
            "GASOLINE_98"
        ]
    },
    {
        "id": "4eb8fc24-418d-437b-96c6-55f2c85460c3",
        "osm_id": "1298850252",
        "brand": "ST1",
        "location": "Autokrysset",
        "address": "",
        "lat": 63.0979877,
        "lon": 7.8210543,
        "fuel_types": [
            "DIESEL",
            "GASOLINE_95",
            "GASOLINE_98"
        ]
    },
    {
        "id": "7387b60e-bd14-402e-9c90-a1840e1b8663",
        "osm_id": "6082847150",
        "brand": "ST1",
        "location": "Ballangen",
        "address": "",
        "lat": 68.3357269,
        "lon": 16.8142159,
        "fuel_types": [
            "DIESEL",
            "GASOLINE_95",
            "GASOLINE_98"
        ]
    },
    {
        "id": "ef3e4f42-33f5-47f7-92ae-936d0923e1e2",
        "osm_id": "801257003",
        "brand": "ST1",
        "location": "Balsfjord",
        "address": "",
        "lat": 69.215467,
        "lon": 19.5539623,
        "fuel_types": [
            "DIESEL",
            "GASOLINE_95",
            "GASOLINE_98"
        ]
    },
    {
        "id": "54ec666d-9fec-4fa0-8eb3-3bae6de01ab9",
        "osm_id": "6083183959",
        "brand": "ST1",
        "location": "Bergerkrysset",
        "address": "",
        "lat": 59.5553733,
        "lon": 11.3260784,
        "fuel_types": [
            "DIESEL",
            "GASOLINE_95"
        ]
    },
    {
        "id": "3cbfeecb-7113-41ea-8238-f93a01250de5",
        "osm_id": "1217840732",
        "brand": "ST1",
        "location": "Bergseng",
        "address": "",
        "lat": 68.8084385,
        "lon": 16.5092449,
        "fuel_types": [
            "DIESEL",
            "GASOLINE_95",
            "GASOLINE_98"
        ]
    },
    {
        "id": "0ce21f39-b5a3-4d14-8ef6-f6583b84df0e",
        "osm_id": "257430658",
        "brand": "ST1",
        "location": "Berkåk",
        "address": "",
        "lat": 62.8320053,
        "lon": 10.0111855,
        "fuel_types": [
            "DIESEL",
            "GASOLINE_95",
            "GASOLINE_98",
            "COLORED_DIESEL"
        ]
    },
    {
        "id": "875d52a6-4b76-49e5-af70-e29c88bde204",
        "osm_id": "8912386466",
        "brand": "ST1",
        "location": "Bilbyn",
        "address": "",
        "lat": 63.399625,
        "lon": 10.402922,
        "fuel_types": [
            "DIESEL",
            "GASOLINE_95",
            "GASOLINE_98",
            "COLORED_DIESEL"
        ]
    },
    {
        "id": "0802f937-d8ee-4748-ba69-a8f4c7c6fd72",
        "osm_id": "13594540871",
        "brand": "ST1",
        "location": "Biogass Koppang",
        "address": "",
        "lat": 61.589354,
        "lon": 10.99552,
        "fuel_types": [
            "DIESEL",
            "GASOLINE_95"
        ]
    },
    {
        "id": "fd09158a-4f9e-418a-acfa-64b873351cfe",
        "osm_id": "13440676465",
        "brand": "ST1",
        "location": "Biogass Lonelier",
        "address": "",
        "lat": 58.0972249,
        "lon": 7.7073484,
        "fuel_types": [
            "DIESEL",
            "GASOLINE_95"
        ]
    },
    {
        "id": "ff8333d1-6de9-4b1f-86e7-7722bed796c3",
        "osm_id": "805860293",
        "brand": "ST1",
        "location": "Bjerkvik",
        "address": "",
        "lat": 68.551167,
        "lon": 17.5577461,
        "fuel_types": [
            "DIESEL",
            "GASOLINE_95",
            "GASOLINE_98"
        ]
    },
    {
        "id": "f6b06a6e-80f7-45b4-8c75-e7d64e407ebc",
        "osm_id": "29050983",
        "brand": "ST1",
        "location": "Bjølsen",
        "address": "",
        "lat": 59.9470019,
        "lon": 10.7597991,
        "fuel_types": [
            "DIESEL",
            "GASOLINE_95",
            "GASOLINE_98"
        ]
    },
    {
        "id": "f4986f3d-3906-4a6a-af18-af1a4b07e9af",
        "osm_id": "260649349",
        "brand": "ST1",
        "location": "Blomsterdalen",
        "address": "",
        "lat": 60.284578,
        "lon": 5.2548065,
        "fuel_types": [
            "DIESEL",
            "GASOLINE_95",
            "GASOLINE_98"
        ]
    },
    {
        "id": "834b6436-9902-4a66-a4e3-fc75761f5442",
        "osm_id": "380526212",
        "brand": "ST1",
        "location": "Bogafjell",
        "address": "",
        "lat": 58.821067,
        "lon": 5.754169,
        "fuel_types": [
            "DIESEL",
            "GASOLINE_95"
        ]
    },
    {
        "id": "5ae8ae3b-08c0-483c-a097-eebb53662a24",
        "osm_id": "4762367696",
        "brand": "ST1",
        "location": "Bogøy",
        "address": "",
        "lat": 67.8987032,
        "lon": 15.1955601,
        "fuel_types": [
            "DIESEL",
            "GASOLINE_95",
            "GASOLINE_98"
        ]
    },
    {
        "id": "3c8bd57d-6171-47bc-b85d-78be0c4683f9",
        "osm_id": "765920007",
        "brand": "ST1",
        "location": "Bolsønes",
        "address": "Verftsgata 1, 6416 Molde",
        "lat": 62.7392851,
        "lon": 7.1929351,
        "fuel_types": [
            "DIESEL",
            "GASOLINE_95",
            "GASOLINE_98",
            "COLORED_DIESEL"
        ]
    },
    {
        "id": "cc5d7264-290e-426d-8f77-5db1771a2ef4",
        "osm_id": "493346156",
        "brand": "ST1",
        "location": "Brakerøya",
        "address": "",
        "lat": 59.7412428,
        "lon": 10.220055,
        "fuel_types": [
            "DIESEL",
            "GASOLINE_95",
            "GASOLINE_98"
        ]
    },
    {
        "id": "b93589b8-a74f-4475-bee1-26e60d5d4e5a",
        "osm_id": "5909626964",
        "brand": "ST1",
        "location": "Brandbu",
        "address": "",
        "lat": 60.4165428,
        "lon": 10.5162266,
        "fuel_types": [
            "DIESEL",
            "GASOLINE_95"
        ]
    },
    {
        "id": "0e086fa7-acba-4c05-9f5b-40557d805b0a",
        "osm_id": "9424583903",
        "brand": "ST1",
        "location": "Brumunddal E6",
        "address": "Strandvegen 1, 2380 Brumunddal",
        "lat": 60.8803159,
        "lon": 10.9274517,
        "fuel_types": [
            "DIESEL",
            "GASOLINE_95",
            "GASOLINE_98",
            "HVO100"
        ]
    },
    {
        "id": "1490ab39-4c74-4d6f-a109-e6efffcc772b",
        "osm_id": "333778630",
        "brand": "ST1",
        "location": "Brumunddal Furnesvegen",
        "address": "",
        "lat": 60.880363,
        "lon": 10.952526,
        "fuel_types": [
            "DIESEL",
            "GASOLINE_95"
        ]
    },
    {
        "id": "3f7a8322-c331-487c-a8a4-5c2c3475293f",
        "osm_id": "6083131332",
        "brand": "ST1",
        "location": "Bryne",
        "address": "",
        "lat": 58.737704,
        "lon": 5.641304,
        "fuel_types": [
            "DIESEL",
            "GASOLINE_95",
            "GASOLINE_98"
        ]
    },
    {
        "id": "f8333275-d896-4256-bffa-7a08ba58a791",
        "osm_id": "6082847154",
        "brand": "ST1",
        "location": "Brønnøysund",
        "address": "",
        "lat": 65.4766495,
        "lon": 12.217535,
        "fuel_types": [
            "DIESEL",
            "GASOLINE_95",
            "GASOLINE_98"
        ]
    },
    {
        "id": "fb64d3f9-8e06-40b2-8d56-675ce38b89d8",
        "osm_id": "6082845019",
        "brand": "ST1",
        "location": "Bårdshaug",
        "address": "",
        "lat": 63.296047,
        "lon": 9.852102,
        "fuel_types": [
            "DIESEL",
            "GASOLINE_95",
            "GASOLINE_98"
        ]
    },
    {
        "id": "35029ab9-89cd-43fe-8e13-8bfa63b05e52",
        "osm_id": "6083183957",
        "brand": "ST1",
        "location": "Bærums verk",
        "address": "",
        "lat": 59.943628,
        "lon": 10.5080424,
        "fuel_types": [
            "DIESEL",
            "GASOLINE_95",
            "GASOLINE_98"
        ]
    },
    {
        "id": "ed981276-1649-4a1a-950e-3eac49256fe0",
        "osm_id": "6083131343",
        "brand": "ST1",
        "location": "Bønes",
        "address": "",
        "lat": 60.325355,
        "lon": 5.2936707,
        "fuel_types": [
            "DIESEL",
            "GASOLINE_95",
            "GASOLINE_98"
        ]
    },
    {
        "id": "38da2720-3583-43bc-a964-dddf82b7e139",
        "osm_id": "685236708",
        "brand": "ST1",
        "location": "Dokka",
        "address": "",
        "lat": 60.8374945,
        "lon": 10.0680772,
        "fuel_types": [
            "DIESEL",
            "GASOLINE_95",
            "GASOLINE_98"
        ]
    },
    {
        "id": "0477aee3-8adc-4026-b6b8-45ba8d8e50db",
        "osm_id": "177373101",
        "brand": "ST1",
        "location": "Dombås",
        "address": "",
        "lat": 62.07253,
        "lon": 9.1237205,
        "fuel_types": [
            "DIESEL",
            "GASOLINE_95",
            "COLORED_DIESEL"
        ]
    },
    {
        "id": "09c829c8-a150-40cb-a154-d280d8fb8067",
        "osm_id": "1368262029",
        "brand": "ST1",
        "location": "Eidsvoll",
        "address": "",
        "lat": 60.3308831,
        "lon": 11.2623133,
        "fuel_types": [
            "DIESEL",
            "GASOLINE_95",
            "GASOLINE_98"
        ]
    },
    {
        "id": "950080c9-5399-44b4-88e5-5a5a53bb67d7",
        "osm_id": "304130380",
        "brand": "ST1",
        "location": "Eiekrysset",
        "address": "",
        "lat": 58.460584,
        "lon": 6.001234,
        "fuel_types": [
            "DIESEL",
            "GASOLINE_95",
            "GASOLINE_98"
        ]
    },
    {
        "id": "36c3a049-3e93-44bc-a153-adb224261006",
        "osm_id": "7689122142",
        "brand": "ST1",
        "location": "Eikanger",
        "address": "",
        "lat": 60.6145917,
        "lon": 5.4038008,
        "fuel_types": [
            "DIESEL",
            "GASOLINE_95"
        ]
    },
    {
        "id": "a990bbd7-78c8-42eb-876a-cb8490827918",
        "osm_id": "6083131340",
        "brand": "ST1",
        "location": "Eikeskog",
        "address": "Eikeskogvegen 30, 5570 Aksdal",
        "lat": 59.405614,
        "lon": 5.458331,
        "fuel_types": [
            "DIESEL"
        ]
    },
    {
        "id": "66660dbe-de4d-404d-a965-505673bd0cad",
        "osm_id": "152108094",
        "brand": "ST1",
        "location": "Eltonåsen",
        "address": "Gamle Åsvegen 91, 2034 Holter",
        "lat": 60.1360672,
        "lon": 11.0237785,
        "fuel_types": [
            "DIESEL",
            "GASOLINE_95"
        ]
    },
    {
        "id": "57955551-6e70-4392-9404-95d4882890ba",
        "osm_id": "4322795013",
        "brand": "ST1",
        "location": "Elverum",
        "address": "Sven Morens veg 4, 2408 Elverum",
        "lat": 60.886001,
        "lon": 11.565817,
        "fuel_types": [
            "DIESEL",
            "GASOLINE_95",
            "GASOLINE_98"
        ]
    },
    {
        "id": "6d2f0338-5a27-4cbb-9e3f-afe957b8a293",
        "osm_id": "6082909887",
        "brand": "ST1",
        "location": "Espa",
        "address": "Falletvegen, E6 11, 2338 Espa",
        "lat": 60.5621914,
        "lon": 11.2561239,
        "fuel_types": [
            "DIESEL",
            "GASOLINE_95",
            "GASOLINE_98"
        ]
    },
    {
        "id": "9e3bed31-0080-4b04-9edd-829a17e87ad9",
        "osm_id": "705089991",
        "brand": "ST1",
        "location": "Etne",
        "address": "Haukelivegen 945, 5590 Etne",
        "lat": 59.6636844,
        "lon": 5.933206,
        "fuel_types": [
            "DIESEL",
            "GASOLINE_95",
            "GASOLINE_98"
        ]
    },
    {
        "id": "2bee2125-845d-495e-b5a4-692a6093efcf",
        "osm_id": "13605615494",
        "brand": "ST1",
        "location": "Etterstad",
        "address": "Ensjøveien 35, 0661 Oslo",
        "lat": 59.9106929,
        "lon": 10.7911829,
        "fuel_types": [
            "DIESEL",
            "GASOLINE_95",
            "GASOLINE_98"
        ]
    },
    {
        "id": "98f309aa-7979-4b3b-832a-f426bf414844",
        "osm_id": "29594326",
        "brand": "ST1",
        "location": "Fagernes",
        "address": "Jernbanevegen 40, 2900 Fagernes",
        "lat": 60.9846713,
        "lon": 9.2442148,
        "fuel_types": [
            "DIESEL",
            "GASOLINE_95",
            "GASOLINE_98",
            "COLORED_DIESEL"
        ]
    },
    {
        "id": "1073fe7c-b085-4a86-9d84-e05f1d932bae",
        "osm_id": "6083131025",
        "brand": "ST1",
        "location": "Fidjane vest",
        "address": "Vesterveien 200, 4628 Kristiansand",
        "lat": 58.145249,
        "lon": 7.912524,
        "fuel_types": [
            "DIESEL",
            "GASOLINE_95",
            "GASOLINE_98"
        ]
    },
    {
        "id": "85ec300c-2c6a-473d-b9b5-3bb935d276ba",
        "osm_id": "6083131024",
        "brand": "ST1",
        "location": "Fidjane øst",
        "address": "Vesterveien 201, 4628 Kristiansand",
        "lat": 58.144624,
        "lon": 7.915379,
        "fuel_types": [
            "DIESEL",
            "GASOLINE_95",
            "GASOLINE_98"
        ]
    },
    {
        "id": "a5dbfd8f-687f-44fb-b427-a147b1dccd9f",
        "osm_id": "783428679",
        "brand": "ST1",
        "location": "Finnsnes",
        "address": "Storgata 59, 9300 Finnsnes",
        "lat": 69.2306061,
        "lon": 17.9985405,
        "fuel_types": [
            "DIESEL",
            "GASOLINE_95",
            "GASOLINE_98"
        ]
    },
    {
        "id": "f7880484-7796-4782-89b2-cd5147e3500b",
        "osm_id": "6082909581",
        "brand": "ST1",
        "location": "Flå",
        "address": "Svingelie 6-8, 3539 Flå",
        "lat": 60.4314336,
        "lon": 9.4580133,
        "fuel_types": [
            "DIESEL",
            "GASOLINE_95",
            "GASOLINE_98"
        ]
    },
    {
        "id": "0254aa19-6594-4e19-b4da-0c7e0e4aafed",
        "osm_id": "6083183951",
        "brand": "ST1",
        "location": "Fokserød",
        "address": "Fokserødveien 19, 3241 Sandefjord",
        "lat": 59.177541,
        "lon": 10.2081195,
        "fuel_types": [
            "DIESEL",
            "GASOLINE_95",
            "GASOLINE_98"
        ]
    },
    {
        "id": "e902d3de-5838-4396-bca4-d7b26bdb6592",
        "osm_id": "287826037",
        "brand": "ST1",
        "location": "Fortun",
        "address": "Lustravegen 4851, 6877 Fortun",
        "lat": 61.4891857,
        "lon": 7.6804599,
        "fuel_types": [
            "DIESEL",
            "GASOLINE_95"
        ]
    },
    {
        "id": "501da0fd-070d-4022-a50c-56fe8fd0d89a",
        "osm_id": "266029941",
        "brand": "ST1",
        "location": "Forus",
        "address": "Forusbeen 20, 4031 Stavanger",
        "lat": 58.8918271,
        "lon": 5.7322343,
        "fuel_types": [
            "DIESEL",
            "GASOLINE_95",
            "GASOLINE_98"
        ]
    },
    {
        "id": "18fcb271-7b89-4bf5-abed-126990cce5cc",
        "osm_id": "298911944",
        "brand": "ST1",
        "location": "Friedland",
        "address": "Numedalsvegen 7, 3617 Kongsberg",
        "lat": 59.6694834,
        "lon": 9.6405232,
        "fuel_types": [
            "DIESEL",
            "GASOLINE_95",
            "GASOLINE_98",
            "COLORED_DIESEL"
        ]
    },
    {
        "id": "5d11b5ae-c666-43d2-a81f-d664fb5d3849",
        "osm_id": "325089557",
        "brand": "ST1",
        "location": "Frogner",
        "address": "Frederik Stangs gate 39, 0264 Oslo",
        "lat": 59.917966,
        "lon": 10.709479,
        "fuel_types": [
            "DIESEL",
            "GASOLINE_95",
            "GASOLINE_98"
        ]
    },
    {
        "id": "94a5f05d-40ec-4e78-b4d7-750cc3e21c36",
        "osm_id": "6083183962",
        "brand": "ST1",
        "location": "Furuset",
        "address": "Professor Birkelands vei 27, 1081 Oslo",
        "lat": 59.9418523,
        "lon": 10.8838772,
        "fuel_types": [
            "DIESEL",
            "GASOLINE_95",
            "HVO100"
        ]
    },
    {
        "id": "f43de33a-15e4-44a1-8cc9-8db93927603b",
        "osm_id": "408995894",
        "brand": "ST1",
        "location": "Fåvang",
        "address": "Tromsnesvegen 3, 2634 Fåvang",
        "lat": 61.461463,
        "lon": 10.185381,
        "fuel_types": [
            "DIESEL",
            "GASOLINE_95",
            "GASOLINE_98",
            "COLORED_DIESEL"
        ]
    },
    {
        "id": "51451903-13f5-4346-9d24-7d494053f50c",
        "osm_id": "6082908830",
        "brand": "ST1",
        "location": "Gaular",
        "address": "Vadheimsvegen 1253, 6973 Sande i Sunnfjord",
        "lat": 61.3724645,
        "lon": 5.7909985,
        "fuel_types": [
            "DIESEL",
            "GASOLINE_95"
        ]
    },
    {
        "id": "ba9cf024-9f15-4bc9-8cfd-590fbc9b51a0",
        "osm_id": "147873684",
        "brand": "ST1",
        "location": "Gjerdrum",
        "address": "Ask 76, 2022 Gjerdrum",
        "lat": 60.0734109,
        "lon": 11.0321004,
        "fuel_types": [
            "DIESEL",
            "GASOLINE_95",
            "GASOLINE_98"
        ]
    },
    {
        "id": "c8a9a117-68c9-4b26-90e8-283e3c0c1540",
        "osm_id": "773016826",
        "brand": "ST1",
        "location": "Gjøvik",
        "address": "Østre Totenveg 145, 2816 Gjøvik",
        "lat": 60.7792679,
        "lon": 10.6962852,
        "fuel_types": [
            "DIESEL",
            "GASOLINE_95"
        ]
    },
    {
        "id": "722d9d30-374b-4a28-985b-fc6e2a7dc105",
        "osm_id": "736511858",
        "brand": "ST1",
        "location": "Gol",
        "address": "Heradvegen 3, 3550 Gol",
        "lat": 60.702324,
        "lon": 8.98459,
        "fuel_types": [
            "DIESEL",
            "GASOLINE_95",
            "GASOLINE_98"
        ]
    },
    {
        "id": "8b379723-0dc5-4c49-87f1-0b11a012ed80",
        "osm_id": "486395914",
        "brand": "ST1",
        "location": "Gran",
        "address": "Oslolinna 57, 2750 Gran",
        "lat": 60.3557232,
        "lon": 10.5733091,
        "fuel_types": [
            "DIESEL",
            "GASOLINE_95",
            "GASOLINE_98"
        ]
    },
    {
        "id": "bbc97439-932b-469b-8031-cc84d08d3fcf",
        "osm_id": "1767432407",
        "brand": "ST1",
        "location": "Sollibrua",
        "address": "Solliveien 278, 1719 Greåker",
        "lat": 59.496551,
        "lon": 10.2832631,
        "fuel_types": [
            "DIESEL",
            "GASOLINE_95",
            "GASOLINE_98"
        ]
    },
    {
        "id": "44f16ec6-76e6-4f99-88b8-20a3fd125b28",
        "osm_id": "279775466",
        "brand": "ST1",
        "location": "Grelland",
        "address": "Grelland 3, 3089 Holmestrand",
        "lat": 59.5140476,
        "lon": 10.2019823,
        "fuel_types": [
            "DIESEL",
            "GASOLINE_95",
            "GASOLINE_98"
        ]
    },
    {
        "id": "132283a5-93c8-4b47-8fae-f7c65b90df99",
        "osm_id": "283380196",
        "brand": "ST1",
        "location": "Grorud",
        "address": "Trondheimsveien 466, 0962 Oslo",
        "lat": 59.9602723,
        "lon": 10.8841075,
        "fuel_types": [
            "DIESEL",
            "GASOLINE_95",
            "GASOLINE_98"
        ]
    },
    {
        "id": "c0e823ad-3594-42e9-bc3e-c9c85f726802",
        "osm_id": "305789097",
        "brand": "ST1",
        "location": "Grøstad",
        "address": "Hortensveien 120, 3157 Barkåker",
        "lat": 59.3214957,
        "lon": 10.4064715,
        "fuel_types": [
            "DIESEL",
            "GASOLINE_95",
            "GASOLINE_98"
        ]
    },
    {
        "id": "f5457d99-3170-43a9-9bc6-029aa96069d2",
        "osm_id": "295697695",
        "brand": "ST1",
        "location": "Gudvangen",
        "address": "Nærøydalen 11 E16, 5747 Gudvangen",
        "lat": 60.87916,
        "lon": 6.8436261,
        "fuel_types": [
            "DIESEL",
            "GASOLINE_95",
            "GASOLINE_98"
        ]
    },
    {
        "id": "d956397f-170d-4088-a894-56cf68aa2aca",
        "osm_id": "360859478",
        "brand": "ST1",
        "location": "Hagakrossen",
        "address": "Tananger Ring 1, 4056 Tananger",
        "lat": 58.9362358,
        "lon": 5.6038493,
        "fuel_types": [
            "DIESEL",
            "GASOLINE_95",
            "GASOLINE_98"
        ]
    },
    {
        "id": "afee44b3-3740-4416-af87-33047e3055ee",
        "osm_id": "1497126839",
        "brand": "ST1",
        "location": "Halden",
        "address": "Garvergata 4, 1772 Halden",
        "lat": 59.125299,
        "lon": 11.3906661,
        "fuel_types": [
            "DIESEL",
            "GASOLINE_95"
        ]
    },
    {
        "id": "51689e55-f739-486b-ba85-468ea9ec4c03",
        "osm_id": "6082845021",
        "brand": "ST1",
        "location": "Hamarøy",
        "address": "Vestfjordveien 1426, 8294 Hamarøy",
        "lat": 68.0841504,
        "lon": 15.6493863,
        "fuel_types": [
            "DIESEL",
            "GASOLINE_95",
            "GASOLINE_98"
        ]
    },
    {
        "id": "2f671caf-278d-46fc-a60d-30341ad5f1eb",
        "osm_id": "1671383046",
        "brand": "ST1",
        "location": "Harestua",
        "address": "Hadelandsvegen 848, 2743 Harestua",
        "lat": 60.2040554,
        "lon": 10.7135212,
        "fuel_types": [
            "DIESEL",
            "GASOLINE_95",
            "GASOLINE_98"
        ]
    },
    {
        "id": "e8b48002-0e0a-4ba9-8b59-afb6f9513e97",
        "osm_id": "6083183950",
        "brand": "ST1",
        "location": "Haslum",
        "address": "Kirkeveien 58, 1344 Haslum",
        "lat": 59.9106269,
        "lon": 10.5613883,
        "fuel_types": [
            "DIESEL",
            "GASOLINE_95"
        ]
    },
    {
        "id": "2f7ec301-a715-43e1-a956-ee3d9d86103b",
        "osm_id": null,
        "brand": "ST1",
        "location": "Haugåsveien",
        "address": "Haugåsveien 41, 4016 Stavanger",
        "lat": 58.9457698,
        "lon": 5.7306762,
        "fuel_types": [
            "DIESEL",
            "GASOLINE_95",
            "GASOLINE_98"
        ]
    },
    {
        "id": "cf4d9d97-f13d-4f24-95d9-2da3dc074d23",
        "osm_id": "21757415",
        "brand": "ST1",
        "location": "Haukås Nyborg",
        "address": "Steinestøvegen 279, 5111 Breistein",
        "lat": 60.488523,
        "lon": 5.3774072,
        "fuel_types": [
            "DIESEL",
            "GASOLINE_95",
            "GASOLINE_98"
        ]
    },
    {
        "id": "f63d0bff-756c-4e06-9fcb-c8c4b5c6d9fc",
        "osm_id": "827364296",
        "brand": "ST1",
        "location": "Haukås Sveio",
        "address": "Tittelsnesvegen 593, 5550 Sveio",
        "lat": 59.5682081,
        "lon": 5.4187907,
        "fuel_types": [
            "DIESEL",
            "GASOLINE_95",
            "GASOLINE_98"
        ]
    },
    {
        "id": "8ac0e534-79dc-49f2-a309-0c5e7385a055",
        "osm_id": "6067032055",
        "brand": "ST1",
        "location": "Heiane",
        "address": "Meatjønnsvegen 26, 5412 Stord",
        "lat": 59.7622996,
        "lon": 5.4497498,
        "fuel_types": [
            "DIESEL",
            "GASOLINE_95",
            "GASOLINE_98"
        ]
    },
    {
        "id": "7982acd3-9950-47e4-a70d-7f81bf64ad45",
        "osm_id": "4402090900",
        "brand": "ST1",
        "location": "Hemsedal",
        "address": "Hemsedalsvegen 2977, 3560 Hemsedal",
        "lat": 60.8634122,
        "lon": 8.5500925,
        "fuel_types": [
            "DIESEL",
            "GASOLINE_95",
            "GASOLINE_98"
        ]
    },
    {
        "id": "10453064-fc58-417a-a31b-b2c3cbb4a4ff",
        "osm_id": "450918494",
        "brand": "ST1",
        "location": "Hitra",
        "address": "Oldervikveien 1, Fv714, 7240 Hitra",
        "lat": 63.5994744,
        "lon": 8.9752005,
        "fuel_types": [
            "DIESEL",
            "GASOLINE_95"
        ]
    },
    {
        "id": "05aeda18-7c84-492a-8a63-fd678b2a3e0d",
        "osm_id": "1626361372",
        "brand": "ST1",
        "location": "Hobøl",
        "address": "Osloveien 1314, 1827 Hobøl",
        "lat": 59.6228569,
        "lon": 10.9544417,
        "fuel_types": [
            "DIESEL",
            "GASOLINE_95",
            "GASOLINE_98"
        ]
    },
    {
        "id": "2fc5e133-5b1b-4259-9399-3c9e9bb327d4",
        "osm_id": "393534666",
        "brand": "ST1",
        "location": "Hostvedt",
        "address": "Hostvetveien 534, 3618 Skollenborg",
        "lat": 59.5925363,
        "lon": 9.7635542,
        "fuel_types": [
            "DIESEL",
            "GASOLINE_95",
            "GASOLINE_98"
        ]
    },
    {
        "id": "f3801a90-a106-436f-981b-672f4e03dba7",
        "osm_id": "855234663",
        "brand": "ST1",
        "location": "Hovdebygda",
        "address": "Torvmyrane 1, 6160 Hovdebygda",
        "lat": 62.1825557,
        "lon": 6.0831277,
        "fuel_types": [
            "DIESEL",
            "GASOLINE_95"
        ]
    },
    {
        "id": "b3527103-6cfd-4be7-a3e5-d5b1abe8be27",
        "osm_id": "6082847149",
        "brand": "ST1",
        "location": "Inderøy",
        "address": "Sundfærvegen 1, 7670 Inderøy",
        "lat": 63.8738974,
        "lon": 11.2885836,
        "fuel_types": [
            "DIESEL",
            "GASOLINE_95",
            "GASOLINE_98"
        ]
    },
    {
        "id": "6a4d32f9-b280-49ca-bea7-aed9775b9ab4",
        "osm_id": "6082847157",
        "brand": "ST1",
        "location": "Innhavet",
        "address": "Hamarøyveien, E6 3068, 8260 Innhavet",
        "lat": 67.9632286,
        "lon": 15.9291327,
        "fuel_types": [
            "DIESEL",
            "GASOLINE_95",
            "GASOLINE_98"
        ]
    },
    {
        "id": "fcb1e848-a8f8-4dbd-9ef6-091a8828d475",
        "osm_id": "6221513868",
        "brand": "ST1",
        "location": "Isdalstø",
        "address": "Lindåsvegen 36, 5916 Isdalstø",
        "lat": 60.55541,
        "lon": 5.270515,
        "fuel_types": [
            "DIESEL",
            "GASOLINE_95"
        ]
    },
    {
        "id": "c78be96c-e3f8-44e0-b902-4a5a53cefb9e",
        "osm_id": "6082847143",
        "brand": "ST1",
        "location": "Ishavsporten",
        "address": "Hungervegen 7A, 9020 Tromsdalen",
        "lat": 69.6438422,
        "lon": 18.9824276,
        "fuel_types": [
            "DIESEL",
            "GASOLINE_95",
            "GASOLINE_98"
        ]
    },
    {
        "id": "842b7a4c-63bf-4a56-b6e8-4a1f3dd18e6e",
        "osm_id": "6120015482",
        "brand": "ST1",
        "location": "Jaren",
        "address": "Osloveien 1013, 1825 Tomter",
        "lat": 59.6181064,
        "lon": 11.0038471,
        "fuel_types": [
            "DIESEL",
            "GASOLINE_95",
            "GASOLINE_98"
        ]
    },
    {
        "id": "c744b68f-b065-4ed2-87d1-84b8cccccd0f",
        "osm_id": "389996549",
        "brand": "ST1",
        "location": "Jærveien",
        "address": "Jærveien 136, 4321 Sandnes",
        "lat": 58.83445,
        "lon": 5.720731,
        "fuel_types": [
            "DIESEL",
            "GASOLINE_95"
        ]
    },
    {
        "id": "ec2fdf1a-be97-433a-9937-da492c9074ef",
        "osm_id": "6083183953",
        "brand": "ST1",
        "location": "Kamfjord",
        "address": "Vesterøyveien 1, 3235 Sandefjord",
        "lat": 59.1277191,
        "lon": 10.242925,
        "fuel_types": [
            "DIESEL",
            "GASOLINE_95",
            "GASOLINE_98"
        ]
    },
    {
        "id": "8393267b-80cc-4c14-91b5-21fe69343bfe",
        "osm_id": "442149044",
        "brand": "ST1",
        "location": "Karmsundgata",
        "address": "Karmsundgata 54, 5529 Haugesund",
        "lat": 59.4021706,
        "lon": 5.2904782,
        "fuel_types": [
            "DIESEL",
            "GASOLINE_95",
            "GASOLINE_98"
        ]
    },
    {
        "id": "62205897-f371-42d2-a674-bb09417a4460",
        "osm_id": "6083131333",
        "brand": "ST1",
        "location": "Karmøy",
        "address": "Fotvegen 1B, 4250 Kopervik",
        "lat": 59.2936836,
        "lon": 5.2915651,
        "fuel_types": [
            "DIESEL",
            "GASOLINE_95",
            "GASOLINE_98"
        ]
    },
    {
        "id": "eb6c2e14-0c64-4e20-ad44-7e5fdddced69",
        "osm_id": "262394168",
        "brand": "ST1",
        "location": "Kastellet",
        "address": "Nyquistveien 1, 1176 Oslo",
        "lat": 59.8720339,
        "lon": 10.7907969,
        "fuel_types": [
            "DIESEL",
            "GASOLINE_95",
            "GASOLINE_98"
        ]
    },
    {
        "id": "0ef46d2d-efc1-4442-b944-268b9aea4012",
        "osm_id": "5898846350",
        "brand": "ST1",
        "location": "Kaupanger",
        "address": "Mannhellervegen 857, 6854 Kaupanger",
        "lat": 61.1955454,
        "lon": 7.2190923,
        "fuel_types": [
            "DIESEL",
            "GASOLINE_95"
        ]
    },
    {
        "id": "946327fc-0003-4a0f-840f-e864221f92ea",
        "osm_id": "6082847148",
        "brand": "ST1",
        "location": "Kautokeino",
        "address": "Fievroluodda 7, 9522 Kautokeino",
        "lat": 69.022533,
        "lon": 23.048852,
        "fuel_types": [
            "DIESEL",
            "GASOLINE_95"
        ]
    },
    {
        "id": "fd641859-e682-45d8-9cec-6da84a116afc",
        "osm_id": "305474354",
        "brand": "ST1",
        "location": "Kjelleveien",
        "address": "Kjelleveien 26, 3125 Tønsberg",
        "lat": 59.2787738,
        "lon": 10.4006667,
        "fuel_types": [
            "DIESEL",
            "GASOLINE_95",
            "GASOLINE_98"
        ]
    },
    {
        "id": "887efc41-5993-42ed-b5f0-05c562b63c44",
        "osm_id": "3131496837",
        "brand": "ST1",
        "location": "Kjellstad",
        "address": "Vestre Linnesvei 4, 3400 Lier",
        "lat": 59.766333,
        "lon": 10.257516,
        "fuel_types": [
            "DIESEL",
            "GASOLINE_95",
            "GASOLINE_98"
        ]
    },
    {
        "id": "55f04c9f-75e3-4285-bc98-6cf52d1d4bc6",
        "osm_id": "363763875",
        "brand": "ST1",
        "location": "Kløfta",
        "address": "Smed Bakkes veg 9 E6 Nordgående, 2040 Kløfta",
        "lat": 60.0790914,
        "lon": 11.1522743,
        "fuel_types": [
            "DIESEL",
            "GASOLINE_95",
            "GASOLINE_98"
        ]
    },
    {
        "id": "8e00d61b-3bb8-4b1d-af1a-54f240ae1f63",
        "osm_id": null,
        "brand": "ST1",
        "location": "Knapphus",
        "address": "Haukelivegen 495, 5576 Øvre Vats",
        "lat": 59.5298489,
        "lon": 5.6855845,
        "fuel_types": [
            "DIESEL",
            "GASOLINE_95",
            "GASOLINE_98"
        ]
    },
    {
        "id": "d4559dda-45af-4df8-89f6-e445771e5c69",
        "osm_id": "662675930",
        "brand": "ST1",
        "location": "Kodal",
        "address": "Sagmyra 4A, 3243 Kodal",
        "lat": 59.2151486,
        "lon": 10.1368347,
        "fuel_types": [
            "DIESEL",
            "GASOLINE_95"
        ]
    },
    {
        "id": "3580c189-a065-48c2-834d-4bcb4bfab9e0",
        "osm_id": "6083185934",
        "brand": "ST1",
        "location": "Kolbotn",
        "address": "Tømteveien 2, 1410 Kolbotn",
        "lat": 59.7949405,
        "lon": 10.8045444,
        "fuel_types": [
            "DIESEL",
            "GASOLINE_95",
            "GASOLINE_98"
        ]
    },
    {
        "id": "d3de7532-5907-47e6-96fe-251d5b72e556",
        "osm_id": "6082906479",
        "brand": "ST1",
        "location": "Kongsberg",
        "address": "Drammensveien 1, 3612 Kongsberg",
        "lat": 59.6710841,
        "lon": 9.6544413,
        "fuel_types": [
            "DIESEL",
            "GASOLINE_95"
        ]
    },
    {
        "id": "8042c7a2-c555-45d0-92e0-37314cf8c2b3",
        "osm_id": "6083131336",
        "brand": "ST1",
        "location": "Kopervik",
        "address": "Avaldsnesvegen 72, 4250 Kopervik",
        "lat": 59.2911399,
        "lon": 5.3030804,
        "fuel_types": [
            "DIESEL",
            "GASOLINE_95",
            "GASOLINE_98"
        ]
    },
    {
        "id": "a5109496-7db0-4183-b809-ccf0b9a415e7",
        "osm_id": "4278784885",
        "brand": "ST1",
        "location": "Kragerø Kirkebukta",
        "address": "Ytre Strandvei 32-34, 3770 Kragerø",
        "lat": 58.872198,
        "lon": 9.415061,
        "fuel_types": [
            "DIESEL",
            "GASOLINE_95"
        ]
    },
    {
        "id": "0d0cbe5a-f8fb-4a59-82f4-291f7ffdcd21",
        "osm_id": "6083185933",
        "brand": "ST1",
        "location": "Kråkerøy",
        "address": "Kråkerøyveien 7, 1671 Kråkerøy",
        "lat": 59.2066324,
        "lon": 10.9369015,
        "fuel_types": [
            "DIESEL",
            "GASOLINE_95",
            "GASOLINE_98"
        ]
    },
    {
        "id": "2e956771-d880-4e84-97fb-778c5c817a12",
        "osm_id": "477356997",
        "brand": "ST1",
        "location": "Kværner",
        "address": "Konows gate 77, 0196 Oslo",
        "lat": 59.9015408,
        "lon": 10.7900235,
        "fuel_types": [
            "DIESEL",
            "GASOLINE_95",
            "GASOLINE_98"
        ]
    },
    {
        "id": "1e0d1630-1a55-4a3b-9ca8-e57eaa1b43ca",
        "osm_id": "495201213",
        "brand": "ST1",
        "location": "Kyrksæterøra",
        "address": "Hellandsjøveien 4, 7200 Kyrksæterøra",
        "lat": 63.293899,
        "lon": 9.080044,
        "fuel_types": [
            "DIESEL",
            "GASOLINE_95",
            "GASOLINE_98"
        ]
    },